{
  "type": "FeatureCollection",
  "features": [
    {"type":"Feature","properties":{"school_nm":"GLOBAL CITIZENSHIP","x":"1145984.28397","grade_cat":"ES","y":"1873030.20443","sch_addr":"4647 W 47TH ST, 60632","school_id":"400009","grades":"K, 1, 2, 3, 4, 5, 6, 7, 8","school_typ":"Traditional"},"geometry":{"type":"Point","coordinates":[-87.74009743581296,41.807578506885676]}},{"type":"Feature","properties":{"school_nm":"LOCKE A","x":"1155303.36178","grade_cat":"ES","y":"1898485.16828","sch_addr":"3141 W JACKSON BLVD, 60612","school_id":"400011","grades":"K, 1, 2, 3, 4, 5, 6, 7, 8","school_typ":"Traditional"},"geometry":{"type":"Point","coordinates":[-87.70523452593643,41.87724835219521]}},{"type":"Feature","properties":{"school_nm":"ASPIRA - EARLY COLLEGE HS","x":"1149195.13023","grade_cat":"HS","y":"1920324.56227","sch_addr":"3986 W BARRY AVE, 60618","school_id":"400013","grades":"9, 10, 11, 12","school_typ":"Traditional"},"geometry":{"type":"Point","coordinates":[-87.72709565849537,41.93729828444937]}},{"type":"Feature","properties":{"school_nm":"ASPIRA - HAUGAN","x":"1150553.58684","grade_cat":"ES","y":"1930941.56564","sch_addr":"3729 W LELAND AVE, 60625","school_id":"400017","grades":"6, 7, 8","school_typ":"Traditional"},"geometry":{"type":"Point","coordinates":[-87.72182466520648,41.966405667183686]}},{"type":"Feature","properties":{"school_nm":"CATALYST - CIRCLE ROCK","x":"1138927.13929","grade_cat":"ES","y":"1900220.05195","sch_addr":"5608 W WASHINGTON BLVD, 60644","school_id":"400021","grades":"K, 1, 2, 3, 4, 5, 6, 7, 8","school_typ":"Traditional"},"geometry":{"type":"Point","coordinates":[-87.76532197832837,41.8823222208844]}},{"type":"Feature","properties":{"school_nm":"CHIARTS HS","x":"1158045.58137","grade_cat":"HS","y":"1906569.34896","sch_addr":"2714 W AUGUSTA BLVD, 60622","school_id":"400022","grades":"9, 10, 11, 12","school_typ":"Traditional"},"geometry":{"type":"Point","coordinates":[-87.69494501176021,41.89937657239439]}},{"type":"Feature","properties":{"school_nm":"CICS - AVALON/SOUTH SHORE","x":"1187674.07362","grade_cat":"ES","y":"1849886.71462","sch_addr":"1501 E 83RD PL, 60619","school_id":"400023","grades":"K, 1, 2, 3, 4, 5, 6, 7, 8","school_typ":"Traditional"},"geometry":{"type":"Point","coordinates":[-87.58792764149399,41.74317941977078]}},{"type":"Feature","properties":{"school_nm":"CICS - BASIL","x":"1165066.97776","grade_cat":"ES","y":"1868237.09426","sch_addr":"1816 W GARFIELD BLVD, 60609","school_id":"400024","grades":"K, 1, 2, 3, 4, 5, 6, 7, 8","school_typ":"Traditional"},"geometry":{"type":"Point","coordinates":[-87.67024265731233,41.79404286369821]}},{"type":"Feature","properties":{"school_nm":"CICS - BUCKTOWN","x":"1161680.73879","grade_cat":"ES","y":"1914992.25141","sch_addr":"2235 N HAMILTON AVE, 60647","school_id":"400025","grades":"K, 1, 2, 3, 4, 5, 6, 7, 8","school_typ":"Traditional"},"geometry":{"type":"Point","coordinates":[-87.68135796494731,41.92241462911477]}},{"type":"Feature","properties":{"school_nm":"CICS - LOOMIS","x":"1168736.34935","grade_cat":"ES","y":"1841373.24412","sch_addr":"9535 S LOOMIS ST, 60643","school_id":"400026","grades":"K, 1, 2","school_typ":"Traditional"},"geometry":{"type":"Point","coordinates":[-87.65756105861855,41.72024642296584]}},{"type":"Feature","properties":{"school_nm":"CICS - IRVING PARK","x":"1153676.56353","grade_cat":"ES","y":"1925310.26621","sch_addr":"3820 N SPAULDING AVE, 60618","school_id":"400027","grades":"K, 1, 2, 3, 4, 5, 6, 7, 8","school_typ":"Traditional"},"geometry":{"type":"Point","coordinates":[-87.71049242850188,41.95089127467508]}},{"type":"Feature","properties":{"school_nm":"CICS - PRAIRIE","x":"1179948.65042","grade_cat":"ES","y":"1828413.05121","sch_addr":"11530 S PRAIRIE AVE, 60628","school_id":"400028","grades":"K, 1, 2, 3, 4, 5, 6, 7, 8","school_typ":"Traditional"},"geometry":{"type":"Point","coordinates":[-87.61688838173549,41.684433037932656]}},{"type":"Feature","properties":{"school_nm":"CICS - WASHINGTON PARK","x":"1178453.76693","grade_cat":"ES","y":"1864730.42838","sch_addr":"110 E 61ST ST, 60637","school_id":"400029","grades":"K, 1, 2, 3, 4, 5, 6, 7, 8","school_typ":"Traditional"},"geometry":{"type":"Point","coordinates":[-87.62126075301158,41.784126396805284]}},{"type":"Feature","properties":{"school_nm":"CICS - WEST BELDEN","x":"1135722.45442","grade_cat":"ES","y":"1914544.34942","sch_addr":"2245 N MCVICKER AVE, 60639","school_id":"400030","grades":"K, 1, 2, 3, 4, 5, 6, 7, 8","school_typ":"Traditional"},"geometry":{"type":"Point","coordinates":[-87.77674853946418,41.92168749461324]}},{"type":"Feature","properties":{"school_nm":"CICS - WRIGHTWOOD","x":"1159098.57598","grade_cat":"ES","y":"1850453.18396","sch_addr":"8130 S CALIFORNIA AVE, 60652","school_id":"400031","grades":"K, 1, 2, 3, 4, 5, 6, 7, 8","school_typ":"Traditional"},"geometry":{"type":"Point","coordinates":[-87.69261439881286,41.74536544990311]}},{"type":"Feature","properties":{"school_nm":"CICS - ELLISON HS","x":"1165539.91316","grade_cat":"HS","y":"1851601.44578","sch_addr":"1817 W 80TH ST, 60620","school_id":"400032","grades":"9, 10, 11, 12","school_typ":"Traditional"},"geometry":{"type":"Point","coordinates":[-87.66897963900723,41.74838240757893]}},{"type":"Feature","properties":{"school_nm":"CICS - LONGWOOD","x":"1169223.02587","grade_cat":"HS","y":"1841732.37398","sch_addr":"1309 W 95TH ST, 60643","school_id":"400033","grades":"3, 4, 5, 6, 7, 8, 9, 10, 11, 12","school_typ":"Traditional"},"geometry":{"type":"Point","coordinates":[-87.65576813292576,41.72122143220191]}},{"type":"Feature","properties":{"school_nm":"CICS - NORTHTOWN HS","x":"1149219.39429","grade_cat":"HS","y":"1939619.68476","sch_addr":"3900 W PETERSON AVE, 60659","school_id":"400034","grades":"9, 10, 11, 12","school_typ":"Traditional"},"geometry":{"type":"Point","coordinates":[-87.72650426434443,41.99024501132617]}},{"type":"Feature","properties":{"school_nm":"CHICAGO MATH & SCIENCE HS","x":"1163206.63994","grade_cat":"HS","y":"1948027.02884","sch_addr":"7212 N CLARK ST, 60626","school_id":"400035","grades":"6, 7, 8, 9, 10, 11, 12","school_typ":"Traditional"},"geometry":{"type":"Point","coordinates":[-87.67481841837879,42.013031488980566]}},{"type":"Feature","properties":{"school_nm":"CHICAGO VIRTUAL","x":"1170398.1167","grade_cat":"HS","y":"1899803.74176","sch_addr":"38 S PEORIA ST, 60607","school_id":"400036","grades":"K, 1, 2, 3, 4, 5, 6, 7, 8, 9, 10, 11, 12","school_typ":"Traditional"},"geometry":{"type":"Point","coordinates":[-87.64977248488317,41.88055011182431]}},{"type":"Feature","properties":{"school_nm":"ERIE","x":"1158183.56698","grade_cat":"ES","y":"1909264.92297","sch_addr":"1405 N WASHTENAW AVE, 60622","school_id":"400039","grades":"K, 1, 2, 3, 4, 5, 6, 7, 8","school_typ":"Traditional"},"geometry":{"type":"Point","coordinates":[-87.69436444522483,41.90677063476995]}},{"type":"Feature","properties":{"school_nm":"FRAZIER CHARTER","x":"1151964.01544","grade_cat":"ES","y":"1892932.22663","sch_addr":"3711 W DOUGLAS BLVD, 60624","school_id":"400040","grades":"K, 1, 2, 3, 4, 5, 6, 7, 8","school_typ":"Traditional"},"geometry":{"type":"Point","coordinates":[-87.71764197634056,41.86207686324782]}},{"type":"Feature","properties":{"school_nm":"HOPE LEARNING ACADEMY","x":"1165405.45575","grade_cat":"ES","y":"1900789.22962","sch_addr":"1628 W WASHINGTON, 60612","school_id":"400043","grades":"K, 1, 2, 3, 4, 5","school_typ":"Traditional"},"geometry":{"type":"Point","coordinates":[-87.66807694563214,41.883362026191705]}},{"type":"Feature","properties":{"school_nm":"KIPP - ASCEND","x":"1151039.67674","grade_cat":"ES","y":"1891574.68309","sch_addr":"1616 S AVERS AVE, 60623","school_id":"400044","grades":"K, 1, 2, 3, 4, 5, 6, 7, 8","school_typ":"Traditional"},"geometry":{"type":"Point","coordinates":[-87.7210706465121,41.858369743196675]}},{"type":"Feature","properties":{"school_nm":"NKRUMAH","x":"1176037.69728","grade_cat":"ES","y":"1833339.56465","sch_addr":"314 W 108TH ST, 60628","school_id":"400045","grades":"K, 1, 2, 3, 4, 5, 6, 7, 8","school_typ":"Traditional"},"geometry":{"type":"Point","coordinates":[-87.63105814858851,41.69804048805754]}},{"type":"Feature","properties":{"school_nm":"LEARN - BUTLER","x":"1153846.87192","grade_cat":"ES","y":"1894839.26022","sch_addr":"1132 S HOMAN AVE, 60624","school_id":"400046","grades":"K, 1, 2, 3, 4, 5, 6, 7, 8","school_typ":"Traditional"},"geometry":{"type":"Point","coordinates":[-87.7106794800759,41.867272713849566]}},{"type":"Feature","properties":{"school_nm":"LEARN - CAMPBELL","x":"1157070.75622","grade_cat":"ES","y":"1898721.29478","sch_addr":"212 S FRANCISCO AVE, 60612","school_id":"400047","grades":"K, 1, 2, 3, 4, 5, 6","school_typ":"Traditional"},"geometry":{"type":"Point","coordinates":[-87.69873871980407,41.87786063109123]}},{"type":"Feature","properties":{"school_nm":"LEARN - EXCEL","x":"1156137.93886","grade_cat":"ES","y":"1902161.5543","sch_addr":"3021 W CARROLL AVE, 60612","school_id":"400048","grades":"K, 1, 2, 3, 4, 5, 6","school_typ":"Traditional"},"geometry":{"type":"Point","coordinates":[-87.702070890427,41.887319914886554]}},{"type":"Feature","properties":{"school_nm":"LEGACY","x":"1154465.76635","grade_cat":"ES","y":"1891086.52494","sch_addr":"3318 W OGDEN AVE, 60623","school_id":"400049","grades":"K, 1, 2, 3, 4, 5, 6, 7, 8","school_typ":"Traditional"},"geometry":{"type":"Point","coordinates":[-87.708507681964,41.85696245124675]}},{"type":"Feature","properties":{"school_nm":"NAMASTE","x":"1165664.43424","grade_cat":"ES","y":"1879778.00031","sch_addr":"3737 S PAULINA ST, 60609","school_id":"400050","grades":"K, 1, 2, 3, 4, 5, 6, 7, 8","school_typ":"Traditional"},"geometry":{"type":"Point","coordinates":[-87.66772404348096,41.825699759221585]}},{"type":"Feature","properties":{"school_nm":"NOBLE - NOBLE HS","x":"1166841.38595","grade_cat":"HS","y":"1906933.07757","sch_addr":"1010 N NOBLE ST, 60642","school_id":"400051","grades":"9, 10, 11, 12","school_typ":"Traditional"},"geometry":{"type":"Point","coordinates":[-87.6626277822452,41.90019052036328]}},{"type":"Feature","properties":{"school_nm":"NOBLE - COMER","x":"1183174.98124","grade_cat":"HS","y":"1857891.91515","sch_addr":"7131 SOUTH CHICAGO AVE, 60619","school_id":"400052","grades":"6, 7, 8, 9, 10, 11, 12","school_typ":"Traditional"},"geometry":{"type":"Point","coordinates":[-87.60416374545034,41.765252281014504]}},{"type":"Feature","properties":{"school_nm":"NOBLE - GOLDER HS","x":"1166350.26751","grade_cat":"HS","y":"1905140.53981","sch_addr":"1454 W SUPERIOR ST, 60642","school_id":"400053","grades":"9, 10, 11, 12","school_typ":"Traditional"},"geometry":{"type":"Point","coordinates":[-87.66448299829219,41.89528219322829]}},{"type":"Feature","properties":{"school_nm":"NOBLE - PRITZKER HS","x":"1148427.04942","grade_cat":"HS","y":"1912271.2411","sch_addr":"4131 W CORTLAND AVE, 60639","school_id":"400054","grades":"9, 10, 11, 12","school_typ":"Traditional"},"geometry":{"type":"Point","coordinates":[-87.73012671473326,41.91521410632573]}},{"type":"Feature","properties":{"school_nm":"NOBLE - RAUNER HS","x":"1167345.13298","grade_cat":"HS","y":"1904107.09634","sch_addr":"1337 W OHIO ST, 60642","school_id":"400055","grades":"9, 10, 11, 12","school_typ":"Traditional"},"geometry":{"type":"Point","coordinates":[-87.66085886981283,41.89242501199445]}},{"type":"Feature","properties":{"school_nm":"NOBLE - ROWE CLARK HS","x":"1151766.79602","grade_cat":"HS","y":"1905060.58164","sch_addr":"3645 W CHICAGO AVE, 60651","school_id":"400056","grades":"9, 10, 11, 12","school_typ":"Traditional"},"geometry":{"type":"Point","coordinates":[-87.7180467676694,41.89536225829381]}},{"type":"Feature","properties":{"school_nm":"NOBLE - UIC HS","x":"1163266.67033","grade_cat":"HS","y":"1894379.14204","sch_addr":"1231 S DAMEN AVE, 60608","school_id":"400057","grades":"9, 10, 11, 12","school_typ":"Traditional"},"geometry":{"type":"Point","coordinates":[-87.67611092980181,41.86581741283157]}},{"type":"Feature","properties":{"school_nm":"NORTH LAWNDALE - CHRISTIANA HS","x":"1154330.91655","grade_cat":"HS","y":"1891669.01197","sch_addr":"1615 S. CHRISTIANA AVE., 60623","school_id":"400058","grades":"9, 10, 11, 12","school_typ":"Traditional"},"geometry":{"type":"Point","coordinates":[-87.70898711117727,41.85856355339459]}},{"type":"Feature","properties":{"school_nm":"NORTH LAWNDALE - COLLINS HS","x":"1156578.75064","grade_cat":"HS","y":"1893719.74802","sch_addr":"1313 S SACRAMENTO DR, 60623","school_id":"400059","grades":"9, 10, 11, 12","school_typ":"Traditional"},"geometry":{"type":"Point","coordinates":[-87.70068059996225,41.86414584238213]}},{"type":"Feature","properties":{"school_nm":"AHS - PASSAGES","x":"1164284.31856","grade_cat":"ES","y":"1937226.38706","sch_addr":"1643 W BRYN MAWR AVE, 60660","school_id":"400060","grades":"K, 1, 2, 3, 4, 5, 6, 7, 8","school_typ":"Traditional"},"geometry":{"type":"Point","coordinates":[-87.67116041931102,41.98337143551791]}},{"type":"Feature","properties":{"school_nm":"PERSPECTIVES - LEADERSHIP HS","x":"1170168.0522","grade_cat":"HS","y":"1850755.18106","sch_addr":"8131 S MAY ST, 60620","school_id":"400061","grades":"6, 7, 8, 9, 10, 11, 12","school_typ":"Traditional"},"geometry":{"type":"Point","coordinates":[-87.65204508844263,41.74596083113286]}},{"type":"Feature","properties":{"school_nm":"PERSPECTIVES - TECH HS","x":"1170546.87985","grade_cat":"HS","y":"1850753.8789","sch_addr":"8131 S MAY ST, 60620","school_id":"400062","grades":"9, 10, 11, 12","school_typ":"Traditional"},"geometry":{"type":"Point","coordinates":[-87.6506570244465,41.745949018698816]}},{"type":"Feature","properties":{"school_nm":"PERSPECTIVES - JOSLIN HS","x":"1176256.13582","grade_cat":"HS","y":"1890904.18082","sch_addr":"1930 S ARCHER AVE, 60616","school_id":"400064","grades":"6, 7, 8, 9, 10, 11, 12","school_typ":"Traditional"},"geometry":{"type":"Point","coordinates":[-87.6285309007454,41.85599910441009]}},{"type":"Feature","properties":{"school_nm":"PERSPECTIVES - MATH & SCI HS","x":"1177360.70022","grade_cat":"HS","y":"1880631.02551","sch_addr":"3663 S WABASH AVE, 60653","school_id":"400066","grades":"6, 7, 8, 9, 10, 11, 12","school_typ":"Traditional"},"geometry":{"type":"Point","coordinates":[-87.62478771976076,41.827783856672056]}},{"type":"Feature","properties":{"school_nm":"PLATO","x":"1139490.83567","grade_cat":"ES","y":"1896739.33745","sch_addr":"5545 W HARRISON ST, 60644","school_id":"400068","grades":"K, 1, 2, 3, 4, 5, 6, 7, 8","school_typ":"Traditional"},"geometry":{"type":"Point","coordinates":[-87.76333693234645,41.87276042775959]}},{"type":"Feature","properties":{"school_nm":"POLARIS","x":"1154565.00499","grade_cat":"ES","y":"1904056.03936","sch_addr":"620 N SAWYER AVE, 60624","school_id":"400069","grades":"K, 1, 2, 3, 4, 5, 6, 7, 8","school_typ":"Traditional"},"geometry":{"type":"Point","coordinates":[-87.70779647483542,41.89255017313203]}},{"type":"Feature","properties":{"school_nm":"PROVIDENCE ENGLEWOOD","x":"1166823.39813","grade_cat":"ES","y":"1861445.07602","sch_addr":"6515 S ASHLAND AVE, 60636","school_id":"400071","grades":"K, 1, 2, 3, 4, 5, 6, 7, 8","school_typ":"Traditional"},"geometry":{"type":"Point","coordinates":[-87.66399582959697,41.775367366876885]}},{"type":"Feature","properties":{"school_nm":"U OF C - DONOGHUE","x":"1181799.8311","grade_cat":"ES","y":"1880647.0035","sch_addr":"707 E 37TH ST, 60653","school_id":"400075","grades":"PK, K, 1, 2, 3, 4, 5","school_typ":"Traditional"},"geometry":{"type":"Point","coordinates":[-87.6085007807937,41.82772608093774]}},{"type":"Feature","properties":{"school_nm":"U OF C - NKO","x":"1184499.02846","grade_cat":"ES","y":"1874641.21564","sch_addr":"1119 E 46TH ST, 60653","school_id":"400076","grades":"PK, K, 1, 2, 3, 4, 5","school_typ":"Traditional"},"geometry":{"type":"Point","coordinates":[-87.59878626839304,41.81118286651697]}},{"type":"Feature","properties":{"school_nm":"U OF C - WOODLAWN HS","x":"1184978.47369","grade_cat":"HS","y":"1863431.73511","sch_addr":"6300 S UNIVERSITY AVE, 60637","school_id":"400077","grades":"6, 7, 8, 9, 10, 11, 12","school_typ":"Traditional"},"geometry":{"type":"Point","coordinates":[-87.59737971847764,41.78041190433886]}},{"type":"Feature","properties":{"school_nm":"U OF C - WOODSON","x":"1181863.90578","grade_cat":"ES","y":"1875480.49119","sch_addr":"4444 S EVANS AVE, 60653","school_id":"400078","grades":"8","school_typ":"Traditional"},"geometry":{"type":"Point","coordinates":[-87.60842562240991,41.813547304108404]}},{"type":"Feature","properties":{"school_nm":"ACERO - ZIZUMBO","x":"1148595.64718","grade_cat":"ES","y":"1873979.91349","sch_addr":"4248 W 47TH ST, 60632","school_id":"400079","grades":"K, 1, 2, 3, 4, 5, 6, 7, 8","school_typ":"Traditional"},"geometry":{"type":"Point","coordinates":[-87.73049511744672,41.81013478652209]}},{"type":"Feature","properties":{"school_nm":"ACERO - TORRES","x":"1148612.77248","grade_cat":"ES","y":"1873274.90374","sch_addr":"4248 W 47TH ST, 60632","school_id":"400080","grades":"K, 1, 2, 3, 4, 5, 6, 7, 8","school_typ":"Traditional"},"geometry":{"type":"Point","coordinates":[-87.73045044341933,41.80819980605674]}},{"type":"Feature","properties":{"school_nm":"ACERO - DE LAS CASAS","x":"1165507.64223","grade_cat":"ES","y":"1892095.67647","sch_addr":"1641 W 16TH ST, 60608","school_id":"400081","grades":"K, 1, 2, 3, 4, 5, 6, 7, 8","school_typ":"Traditional"},"geometry":{"type":"Point","coordinates":[-87.66794916955581,41.859504007501364]}},{"type":"Feature","properties":{"school_nm":"ACERO - FUENTES","x":"1156677.4299","grade_cat":"ES","y":"1920443.35599","sch_addr":"2845 W BARRY AVE, 60618","school_id":"400082","grades":"K, 1, 2, 3, 4, 5, 6, 7, 8","school_typ":"Traditional"},"geometry":{"type":"Point","coordinates":[-87.69959365144675,41.937475775108396]}},{"type":"Feature","properties":{"school_nm":"ACERO - PAZ","x":"1158831.58931","grade_cat":"ES","y":"1888594.36982","sch_addr":"2651 W 23RD ST, 60608","school_id":"400083","grades":"K, 1, 2, 3, 4, 5, 6, 7, 8","school_typ":"Traditional"},"geometry":{"type":"Point","coordinates":[-87.69255089867096,41.85003541229726]}},{"type":"Feature","properties":{"school_nm":"ACERO - TAMAYO","x":"1158610.37223","grade_cat":"ES","y":"1870333.60221","sch_addr":"5135 S CALIFORNIA AVE, 60632","school_id":"400084","grades":"K, 1, 2, 3, 4, 5, 6, 7, 8","school_typ":"Traditional"},"geometry":{"type":"Point","coordinates":[-87.69386163539056,41.799930185927614]}},{"type":"Feature","properties":{"school_nm":"ACERO - GARCIA HS","x":"1148605.81776","grade_cat":"HS","y":"1873628.69273","sch_addr":"4248 W 47TH ST, 60632","school_id":"400085","grades":"9, 10, 11, 12","school_typ":"Traditional"},"geometry":{"type":"Point","coordinates":[-87.73046684945614,41.809170789228574]}},{"type":"Feature","properties":{"school_nm":"URBAN PREP - ENGLEWOOD HS","x":"1174889.87346","grade_cat":"HS","y":"1863743.28468","sch_addr":"6201 S STEWART AVE, 60621","school_id":"400086","grades":"9, 10, 11, 12","school_typ":"Traditional"},"geometry":{"type":"Point","coordinates":[-87.63435669192559,41.781497815831855]}},{"type":"Feature","properties":{"school_nm":"YOUNG WOMENS HS","x":"1178962.59367","grade_cat":"HS","y":"1886751.98243","sch_addr":"2641 S CALUMET AVE, 60616","school_id":"400087","grades":"9, 10, 11, 12","school_typ":"Traditional"},"geometry":{"type":"Point","coordinates":[-87.61872379631045,41.84454380554294]}},{"type":"Feature","properties":{"school_nm":"ACERO - MARQUEZ","x":"1157624.60583","grade_cat":"ES","y":"1873379.58102","sch_addr":"2916 W 47TH ST, 60632","school_id":"400089","grades":"K, 1, 2, 3, 4, 5, 6, 7, 8","school_typ":"Traditional"},"geometry":{"type":"Point","coordinates":[-87.69739409699946,41.80830882382766]}},{"type":"Feature","properties":{"school_nm":"CHICAGO TECH HS","x":"1167908.81","grade_cat":"HS","y":"1893498.25831","sch_addr":"1301 W 14TH ST, 60608","school_id":"400091","grades":"9, 10, 11, 12","school_typ":"Traditional"},"geometry":{"type":"Point","coordinates":[-87.65909480292642,41.86330140822328]}},{"type":"Feature","properties":{"school_nm":"CICS - BOND","x":"1183280.08437","grade_cat":"ES","y":"1817228.17627","sch_addr":"13300 S LANGLEY AVE, 60827","school_id":"400092","grades":"K, 1, 2, 3, 4, 5, 6","school_typ":"Traditional"},"geometry":{"type":"Point","coordinates":[-87.60503910190955,41.653663449416015]}},{"type":"Feature","properties":{"school_nm":"EPIC HS","x":"1197958.52221","grade_cat":"HS","y":"1850586.52359","sch_addr":"8255 S HOUSTON AVE, 60617","school_id":"400094","grades":"9, 10, 11, 12","school_typ":"Traditional"},"geometry":{"type":"Point","coordinates":[-87.55022236950532,41.744849105595485]}},{"type":"Feature","properties":{"school_nm":"ROWE","x":"1166426.46027","grade_cat":"ES","y":"1909701.87551","sch_addr":"1424 N CLEAVER ST, 60642","school_id":"400096","grades":"K, 1, 2, 3, 4, 5, 6, 7, 8","school_typ":"Traditional"},"geometry":{"type":"Point","coordinates":[-87.66407246853345,41.90779717825756]}},{"type":"Feature","properties":{"school_nm":"NOBLE - BULLS HS","x":"1162662.79785","grade_cat":"HS","y":"1899108.84518","sch_addr":"2040 W ADAMS ST, 60612","school_id":"400097","grades":"9, 10, 11, 12","school_typ":"Traditional"},"geometry":{"type":"Point","coordinates":[-87.67819525963878,41.87880880794607]}},{"type":"Feature","properties":{"school_nm":"NOBLE - MUCHIN HS","x":"1176773.20762","grade_cat":"HS","y":"1900653.52976","sch_addr":"1 N STATE ST, 60602","school_id":"400098","grades":"9, 10, 11, 12","school_typ":"Traditional"},"geometry":{"type":"Point","coordinates":[-87.62633828219971,41.88274025710012]}},{"type":"Feature","properties":{"school_nm":"ACERO - CISNEROS","x":"1158511.46659","grade_cat":"ES","y":"1878697.47557","sch_addr":"2744 W PERSHING RD, 60632","school_id":"400101","grades":"K, 1, 2, 3, 4, 5, 6, 7, 8","school_typ":"Traditional"},"geometry":{"type":"Point","coordinates":[-87.69399616198365,41.8228837404716]}},{"type":"Feature","properties":{"school_nm":"URBAN PREP - WEST HS","x":"1167635.39257","grade_cat":"HS","y":"1893218.64699","sch_addr":"1326 W 14TH PL, 60608","school_id":"400102","grades":"9, 10, 11, 12","school_typ":"Traditional"},"geometry":{"type":"Point","coordinates":[-87.66010654063662,41.86254001922581]}},{"type":"Feature","properties":{"school_nm":"INSTITUTO - HEALTH","x":"1160289.66546","grade_cat":"HS","y":"1887122.54501","sch_addr":"2520 S WESTERN AVE, 60608","school_id":"400104","grades":"9, 10, 11, 12","school_typ":"Traditional"},"geometry":{"type":"Point","coordinates":[-87.6872401588268,41.84596658769947]}},{"type":"Feature","properties":{"school_nm":"URBAN PREP - BRONZEVILLE HS","x":"1180391.89264","grade_cat":"HS","y":"1881871.08504","sch_addr":"521 E 35TH ST, 60616","school_id":"400105","grades":"9, 10, 11, 12","school_typ":"Traditional"},"geometry":{"type":"Point","coordinates":[-87.61362864698684,41.83111753084326]}},{"type":"Feature","properties":{"school_nm":"NOBLE - JOHNSON HS","x":"1174691.84302","grade_cat":"HS","y":"1862601.66393","sch_addr":"6350 S STEWART AVE, 60621","school_id":"400106","grades":"9, 10, 11, 12","school_typ":"Traditional"},"geometry":{"type":"Point","coordinates":[-87.63511669835238,41.77836949834166]}},{"type":"Feature","properties":{"school_nm":"LEARN - SOUTH CHICAGO","x":"1199263.86081","grade_cat":"ES","y":"1846401.76884","sch_addr":"8914 S BUFFALO AVE, 60617","school_id":"400107","grades":"K, 1, 2, 3, 4, 5, 6, 7, 8","school_typ":"Traditional"},"geometry":{"type":"Point","coordinates":[-87.54557989281986,41.73333313284307]}},{"type":"Feature","properties":{"school_nm":"LEARN - PERKINS","x":"1166443.99797","grade_cat":"ES","y":"1849691.40202","sch_addr":"1700 W 83RD ST, 60620","school_id":"400111","grades":"K, 1, 2, 3, 4, 5, 6, 7","school_typ":"Traditional"},"geometry":{"type":"Point","coordinates":[-87.66572105552245,41.74312176998597]}},{"type":"Feature","properties":{"school_nm":"ACERO - IDAR","x":"1154535.14416","grade_cat":"ES","y":"1870708.94923","sch_addr":"5050 S HOMAN AVE, 60632","school_id":"400112","grades":"K, 1, 2, 3, 4, 5, 6, 7, 8","school_typ":"Traditional"},"geometry":{"type":"Point","coordinates":[-87.70879678421302,41.80104241336387]}},{"type":"Feature","properties":{"school_nm":"CICS - CHICAGOQUEST HS","x":"1171465.27434","grade_cat":"HS","y":"1909741.59426","sch_addr":"1443 N OGDEN AVE, 60610","school_id":"400113","grades":"9, 10, 11, 12","school_typ":"Traditional"},"geometry":{"type":"Point","coordinates":[-87.6455614997251,41.90779679504793]}},{"type":"Feature","properties":{"school_nm":"ACERO - SANTIAGO","x":"1159417.59568","grade_cat":"ES","y":"1906932.01589","sch_addr":"2510 W CORTEZ ST, 60622","school_id":"400114","grades":"K, 1, 2, 3, 4, 5, 6, 7, 8","school_typ":"Traditional"},"geometry":{"type":"Point","coordinates":[-87.68989562476189,41.90034363442005]}},{"type":"Feature","properties":{"school_nm":"CATALYST - MARIA","x":"1158903.29422","grade_cat":"ES","y":"1859790.23025","sch_addr":"6727 S CALIFORNIA AVE, 60629","school_id":"400115","grades":"K, 1, 2, 3, 4, 5, 6, 7, 8, 9, 10, 11, 12","school_typ":"Traditional"},"geometry":{"type":"Point","coordinates":[-87.6930753226288,41.770991718211576]}},{"type":"Feature","properties":{"school_nm":"MONTESSORI ENGLEWOOD","x":"1165852.15237","grade_cat":"ES","y":"1858530.51427","sch_addr":"6936 S HERMITAGE AVE, 60636","school_id":"400116","grades":"PK, K, 1, 2, 3, 4, 5, 6, 7, 8","school_typ":"Traditional"},"geometry":{"type":"Point","coordinates":[-87.6676390084211,41.7673901123986]}},{"type":"Feature","properties":{"school_nm":"NOBLE - HANSBERRY HS","x":"1170490.15359","grade_cat":"HS","y":"1846559.9821","sch_addr":"8748 S ABERDEEN ST, 60620","school_id":"400117","grades":"9, 10, 11, 12","school_typ":"Traditional"},"geometry":{"type":"Point","coordinates":[-87.65098672782085,41.734441622545084]}},{"type":"Feature","properties":{"school_nm":"NOBLE - DRW HS","x":"1153575.94792","grade_cat":"HS","y":"1895586.30564","sch_addr":"931 S HOMAN AVE, 60624","school_id":"400118","grades":"9, 10, 11, 12","school_typ":"Traditional"},"geometry":{"type":"Point","coordinates":[-87.71165422586564,41.86932807646286]}},{"type":"Feature","properties":{"school_nm":"LEGAL PREP HS","x":"1147518.41935","grade_cat":"HS","y":"1900063.68382","sch_addr":"4319 W WASHINGTON BLVD, 60624","school_id":"400119","grades":"9, 10, 11, 12","school_typ":"Traditional"},"geometry":{"type":"Point","coordinates":[-87.73377838310492,41.88173275840047]}},{"type":"Feature","properties":{"school_nm":"ACERO - CLEMENTE","x":"1132715.20683","grade_cat":"ES","y":"1913163.63663","sch_addr":"2050 N NATCHEZ AVE, 60707","school_id":"400120","grades":"K, 1, 2, 3, 4, 5, 6, 7, 8","school_typ":"Traditional"},"geometry":{"type":"Point","coordinates":[-87.78783043795977,41.917951679001526]}},{"type":"Feature","properties":{"school_nm":"ACERO - DE LA CRUZ","x":"1160591.69799","grade_cat":"ES","y":"1949262.29343","sch_addr":"7416 N RIDGE BLVD, 60645","school_id":"400121","grades":"K, 1, 2, 3, 4, 5, 6, 7, 8, 9, 10, 11, 12","school_typ":"Traditional"},"geometry":{"type":"Point","coordinates":[-87.68440568153892,42.01647588165271]}},{"type":"Feature","properties":{"school_nm":"YCCS - SCHOLASTIC ACHIEVEMENT","x":"1145136.00581","grade_cat":"HS","y":"1899578.67922","sch_addr":"4651 W MADISON ST, 60644","school_id":"400123","grades":"10, 11, 12","school_typ":"Options"},"geometry":{"type":"Point","coordinates":[-87.74253889944762,41.880447187300774]}},{"type":"Feature","properties":{"school_nm":"YCCS - MCKINLEY","x":"1177172.00473","grade_cat":"HS","y":"1885566.39655","sch_addr":"2920 S WABASH AVE, 60616","school_id":"400124","grades":"10, 11, 12","school_typ":"Options"},"geometry":{"type":"Point","coordinates":[-87.62533077011555,41.84133116704404]}},{"type":"Feature","properties":{"school_nm":"YCCS - ASPIRA PANTOJA","x":"1149181.49509","grade_cat":"HS","y":"1920648.18695","sch_addr":"3121 N PULASKI RD, 60641","school_id":"400125","grades":"10, 11, 12","school_typ":"Options"},"geometry":{"type":"Point","coordinates":[-87.72713735989637,41.93818660243103]}},{"type":"Feature","properties":{"school_nm":"YCCS - ASSOCIATION HOUSE","x":"1154796.00519","grade_cat":"HS","y":"1907345.59872","sch_addr":"1116 N KEDZIE AVE, 60651","school_id":"400126","grades":"10, 11","school_typ":"Options"},"geometry":{"type":"Point","coordinates":[-87.70685988382161,41.9015724066718]}},{"type":"Feature","properties":{"school_nm":"YCCS - AUSTIN CAREER","x":"1140285.36426","grade_cat":"HS","y":"1904840.45019","sch_addr":"5352 W CHICAGO AVE, 60651","school_id":"400127","grades":"10, 11, 12","school_typ":"Options"},"geometry":{"type":"Point","coordinates":[-87.76022117562405,41.89497639068477]}},{"type":"Feature","properties":{"school_nm":"YCCS - CCA ACADEMY","x":"1150316.69262","grade_cat":"HS","y":"1893965.06479","sch_addr":"1231 S PULASKI RD, 60623","school_id":"400128","grades":"10, 11, 12","school_typ":"Options"},"geometry":{"type":"Point","coordinates":[-87.72366217143608,41.86494335189345]}},{"type":"Feature","properties":{"school_nm":"YCCS - PROGRESSIVE LEADERSHIP","x":"1179961.87972","grade_cat":"HS","y":"1861114.50746","sch_addr":"6620 S DR MARTIN LUTHER KING JR DR, 60637","school_id":"400129","grades":"10, 11, 12","school_typ":"Options"},"geometry":{"type":"Point","coordinates":[-87.61584209881255,41.77416954786256]}},{"type":"Feature","properties":{"school_nm":"YCCS - YOUTH DEVELOPMENT","x":"1172966.78446","grade_cat":"HS","y":"1852751.27779","sch_addr":"7836 S UNION AVE, 60620","school_id":"400130","grades":"10, 11, 12","school_typ":"Options"},"geometry":{"type":"Point","coordinates":[-87.64173118629225,41.751377111833904]}},{"type":"Feature","properties":{"school_nm":"YCCS - CAMPOS","x":"1157747.32704","grade_cat":"HS","y":"1907832.80805","sch_addr":"2739 W DIVISION ST, 60622","school_id":"400131","grades":"10, 11, 12","school_typ":"Options"},"geometry":{"type":"Point","coordinates":[-87.69600602220713,41.90284969724916]}},{"type":"Feature","properties":{"school_nm":"YCCS - INNOVATIONS","x":"1176392.17558","grade_cat":"HS","y":"1900762.24083","sch_addr":"17 N. STATE ST., 60602","school_id":"400133","grades":"10, 11, 12","school_typ":"Options"},"geometry":{"type":"Point","coordinates":[-87.62773414585837,41.88304717157979]}},{"type":"Feature","properties":{"school_nm":"YCCS - ADDAMS","x":"1171796.49612","grade_cat":"HS","y":"1891308.49366","sch_addr":"1814 S UNION AVE, 60616","school_id":"400134","grades":"10, 11, 12","school_typ":"Options"},"geometry":{"type":"Point","coordinates":[-87.6448879754817,41.85720785596084]}},{"type":"Feature","properties":{"school_nm":"YCCS - LATINO YOUTH","x":"1158034.63749","grade_cat":"HS","y":"1890275.41173","sch_addr":"2001 S CALIFORNIA AVE, 60608","school_id":"400135","grades":"10, 11, 12","school_typ":"Options"},"geometry":{"type":"Point","coordinates":[-87.69543001380885,41.85466465548888]}},{"type":"Feature","properties":{"school_nm":"YCCS - OLIVE HARVEY","x":"1186566.68476","grade_cat":"HS","y":"1838850.86465","sch_addr":"10001 S WOODLAWN AVE, 60628","school_id":"400136","grades":"10, 11","school_typ":"Options"},"geometry":{"type":"Point","coordinates":[-87.592333202492,41.71292209989564]}},{"type":"Feature","properties":{"school_nm":"LITTLE BLACK PEARL HS","x":"1184352.71707","grade_cat":"HS","y":"1874097.93523","sch_addr":"1060 E 47TH ST, 60653","school_id":"400137","grades":"9, 10, 11, 12","school_typ":"Options"},"geometry":{"type":"Point","coordinates":[-87.59933993996285,41.809695495557065]}},{"type":"Feature","properties":{"school_nm":"YCCS - SULLIVAN","x":"1190239.27157","grade_cat":"HS","y":"1851041.38062","sch_addr":"8164 S SOUTH CHICAGO AVE, 60617","school_id":"400139","grades":"10, 11","school_typ":"Options"},"geometry":{"type":"Point","coordinates":[-87.57849166954297,41.746286569880006]}},{"type":"Feature","properties":{"school_nm":"YCCS - TRUMAN","x":"1167577.33461","grade_cat":"HS","y":"1930664.46186","sch_addr":"1145 W WILSON AVE, 60640","school_id":"400141","grades":"10, 11, 12","school_typ":"Options"},"geometry":{"type":"Point","coordinates":[-87.65923928943083,41.965294816271395]}},{"type":"Feature","properties":{"school_nm":"YCCS - WEST TOWN","x":"1156133.52679","grade_cat":"HS","y":"1903430.86803","sch_addr":"500 N SACRAMENTO BLVD, 60612","school_id":"400143","grades":"10, 11","school_typ":"Options"},"geometry":{"type":"Point","coordinates":[-87.70205280026559,41.89080312095962]}},{"type":"Feature","properties":{"school_nm":"YCCS - WESTSIDE HOLISTIC","x":"1143374.0674","grade_cat":"HS","y":"1907508.27556","sch_addr":"4909 W DIVISION ST, 60651","school_id":"400144","grades":"10, 11, 12","school_typ":"Options"},"geometry":{"type":"Point","coordinates":[-87.74881028902938,41.90224003146582]}},{"type":"Feature","properties":{"school_nm":"YCCS - YOUTH CONNECTION","x":"1176804.45822","grade_cat":"HS","y":"1882189.15396","sch_addr":"3424 S STATE ST, 60616","school_id":"400145","grades":"10, 11, 12","school_typ":"Options"},"geometry":{"type":"Point","coordinates":[-87.62678146982476,41.83207205772944]}},{"type":"Feature","properties":{"school_nm":"KIPP - ACADEMY","x":"1143997.98282","grade_cat":"ES","y":"1903713.89864","sch_addr":"4818 W OHIO ST, 60644","school_id":"400146","grades":"4, 5, 6, 7, 8","school_typ":"Traditional"},"geometry":{"type":"Point","coordinates":[-87.74661383938387,41.891816141953214]}},{"type":"Feature","properties":{"school_nm":"CAMELOT - EXCEL HS","x":"1169864.49867","grade_cat":"HS","y":"1831077.64233","sch_addr":"1257 W 111TH ST, 60643","school_id":"400147","grades":"9, 10, 11, 12","school_typ":"Options"},"geometry":{"type":"Point","coordinates":[-87.6537265378718,41.691969313672274]}},{"type":"Feature","properties":{"school_nm":"INSTITUTO - LOZANO HS","x":"1161156.24936","grade_cat":"HS","y":"1886939.37477","sch_addr":"2570 S BLUE ISLAND AVE, 60608","school_id":"400164","grades":"9, 10, 11, 12","school_typ":"Options"},"geometry":{"type":"Point","coordinates":[-87.68406493865558,41.84544601504087]}},{"type":"Feature","properties":{"school_nm":"ACERO - SOTO HS","x":"1153925.70476","grade_cat":"HS","y":"1870966.84504","sch_addr":"5025 S SAINT LOUIS AVE, 60632","school_id":"400149","grades":"8, 9, 10, 11","school_typ":"Traditional"},"geometry":{"type":"Point","coordinates":[-87.71102498480566,41.801762245391835]}},{"type":"Feature","properties":{"school_nm":"YCCS - CHATHAM","x":"1182514.7319","grade_cat":"HS","y":"1845087.6714","sch_addr":"9035 S LANGLEY AVE, 60619","school_id":"400150","grades":"10, 11, 12","school_typ":"Options"},"geometry":{"type":"Point","coordinates":[-87.60697990879785,41.73013138418161]}},{"type":"Feature","properties":{"school_nm":"LEARN - 7","x":"1156315.88896","grade_cat":"ES","y":"1902161.98048","sch_addr":"3021 W CARROLL AVE, 60612","school_id":"400151","grades":"K, 1, 2, 3, 4, 5","school_typ":"Traditional"},"geometry":{"type":"Point","coordinates":[-87.7014173913643,41.88731749028673]}},{"type":"Feature","properties":{"school_nm":"ACERO - BRIGHTON PARK","x":"1158744.54388","grade_cat":"ES","y":"1875137.31078","sch_addr":"4420 S FAIRFIELD AVE, 60632","school_id":"400153","grades":"K, 1, 2, 3, 4, 5, 6, 7, 8","school_typ":"Traditional"},"geometry":{"type":"Point","coordinates":[-87.69323838455642,41.81310944439286]}},{"type":"Feature","properties":{"school_nm":"NOBLE - BUTLER HS","x":"1183790.13257","grade_cat":"HS","y":"1836547.62943","sch_addr":"821 E 103RD ST, 60628","school_id":"400156","grades":"9, 10, 11","school_typ":"Traditional"},"geometry":{"type":"Point","coordinates":[-87.60257331721643,41.706666858314506]}},{"type":"Feature","properties":{"school_nm":"NOBLE - BAKER HS","x":"1196360.49292","grade_cat":"HS","y":"1846845.19938","sch_addr":"2710 E 89TH ST, 60617","school_id":"400157","grades":"9, 10, 11, 12","school_typ":"Traditional"},"geometry":{"type":"Point","coordinates":[-87.55620144124543,41.73462237120126]}},{"type":"Feature","properties":{"school_nm":"CHRISTOPHER HOUSE","x":"1140953.82421","grade_cat":"ES","y":"1914758.78829","sch_addr":"5235 W BELDEN AVE, 60639","school_id":"400159","grades":"PK, K, 1, 2, 3, 4, 5, 6","school_typ":"Traditional"},"geometry":{"type":"Point","coordinates":[-87.75752152784457,41.9221811558643]}},{"type":"Feature","properties":{"school_nm":"CHICAGO COLLEGIATE","x":"1179669.25826","grade_cat":"HS","y":"1826546.90927","sch_addr":"11816 S INDIANA AVE, 60628","school_id":"400161","grades":"3, 4, 5, 6, 7, 8, 9, 10","school_typ":"Traditional"},"geometry":{"type":"Point","coordinates":[-87.61796787063743,41.679318442476]}},{"type":"Feature","properties":{"school_nm":"INTRINSIC HS","x":"1145372.77108","grade_cat":"HS","y":"1920913.76614","sch_addr":"4540 W BELMONT AVE, 60641","school_id":"400162","grades":"7, 8, 9, 10, 11, 12","school_typ":"Traditional"},"geometry":{"type":"Point","coordinates":[-87.74112862663965,41.938988427629674]}},{"type":"Feature","properties":{"school_nm":"KIPP - BLOOM","x":"1173324.17581","grade_cat":"ES","y":"1868124.9147","sch_addr":"5515 S LOWE AVE, 60621","school_id":"400163","grades":"K, 5, 6, 7, 8","school_typ":"Traditional"},"geometry":{"type":"Point","coordinates":[-87.63996733091673,41.79355626721791]}},{"type":"Feature","properties":{"school_nm":"LEARN - MIDDLE","x":"1155960.11802","grade_cat":"ES","y":"1902160.24459","sch_addr":"3021 W CARROLL AVE, 60612","school_id":"400165","grades":"6, 7, 8","school_typ":"Traditional"},"geometry":{"type":"Point","coordinates":[-87.70272393872818,41.887319908674456]}},{"type":"Feature","properties":{"school_nm":"HORIZON - SOUTHWEST","x":"1161322.28938","grade_cat":"ES","y":"1868630.53344","sch_addr":"5401 S. WESTERN, 60609","school_id":"400167","grades":"K, 1, 2, 3, 4, 5, 6, 7, 8, 9, 10, 11, 12","school_typ":"Traditional"},"geometry":{"type":"Point","coordinates":[-87.68396339328174,41.79520095247124]}},{"type":"Feature","properties":{"school_nm":"NOBLE - ITW SPEER HS","x":"1140379.70036","grade_cat":"HS","y":"1912963.92279","sch_addr":"5321 W GRAND AVE, 60639","school_id":"400169","grades":"9, 10, 11, 12","school_typ":"Traditional"},"geometry":{"type":"Point","coordinates":[-87.7596751723386,41.917266408665725]}},{"type":"Feature","properties":{"school_nm":"NOBLE - ACADEMY HS","x":"1171463.75466","grade_cat":"HS","y":"1909407.04047","sch_addr":"1443 N OGDEN AVE, 60610","school_id":"400170","grades":"9, 10, 11, 12","school_typ":"Traditional"},"geometry":{"type":"Point","coordinates":[-87.64557693593237,41.90687879459018]}},{"type":"Feature","properties":{"school_nm":"FOUNDATIONS","x":"1169908.97529","grade_cat":"HS","y":"1832062.41956","sch_addr":"1233 W. 109TH PL, 60643","school_id":"400171","grades":"6, 7, 8, 9, 10, 11","school_typ":"Traditional"},"geometry":{"type":"Point","coordinates":[-87.6535352484652,41.694670738683605]}},{"type":"Feature","properties":{"school_nm":"PATHWAYS - BRIGHTON PARK HS","x":"1156193.34787","grade_cat":"HS","y":"1873338.77369","sch_addr":"3124 W. 47TH STREET, 60632","school_id":"400173","grades":"9, 10, 11, 12","school_typ":"Options"},"geometry":{"type":"Point","coordinates":[-87.70264475134516,41.80822578510756]}},{"type":"Feature","properties":{"school_nm":"CAMELOT - EXCEL SOUTH SHORE HS","x":"1196199.86661","grade_cat":"HS","y":"1856000.29623","sch_addr":"7530 S SOUTH SHORE DR, 60649","school_id":"400175","grades":"9, 10, 11, 12","school_typ":"Options"},"geometry":{"type":"Point","coordinates":[-87.55648708348222,41.75974863927389]}},{"type":"Feature","properties":{"school_nm":"CAMELOT - EXCEL SOUTHWEST HS","x":"1159556.82637","grade_cat":"HS","y":"1857950.15978","sch_addr":"7014 S WASHTENAW AVE, 60629","school_id":"400176","grades":"8, 9, 10, 11, 12","school_typ":"Options"},"geometry":{"type":"Point","coordinates":[-87.69073009115593,41.76592891992978]}},{"type":"Feature","properties":{"school_nm":"CHICAGO VOCATIONAL HS","x":"1191694.2329","grade_cat":"HS","y":"1847733.3669","sch_addr":"2100 E 87TH ST, 60617","school_id":"609674","grades":"9, 10, 11, 12","school_typ":"Traditional"},"geometry":{"type":"Point","coordinates":[-87.57326751568073,41.73717393358173]}},{"type":"Feature","properties":{"school_nm":"DUNBAR HS","x":"1179271.71345","grade_cat":"HS","y":"1885180.896","sch_addr":"3000 S KING DR, 60616","school_id":"609676","grades":"9, 10, 11, 12","school_typ":"Traditional"},"geometry":{"type":"Point","coordinates":[-87.61763743460318,41.84022557168194]}},{"type":"Feature","properties":{"school_nm":"JONES HS","x":"1176438.09839","grade_cat":"HS","y":"1897125.21431","sch_addr":"700 S STATE ST, 60605","school_id":"609678","grades":"9, 10, 11, 12","school_typ":"Traditional"},"geometry":{"type":"Point","coordinates":[-87.62767532291659,41.87306592282553]}},{"type":"Feature","properties":{"school_nm":"PROSSER HS","x":"1139999.1857","grade_cat":"HS","y":"1913979.19339","sch_addr":"2148 N LONG AVE, 60639","school_id":"609679","grades":"9, 10, 11, 12","school_typ":"Traditional"},"geometry":{"type":"Point","coordinates":[-87.76104831561555,41.92005939899792]}},{"type":"Feature","properties":{"school_nm":"PAYTON HS","x":"1174253.89869","grade_cat":"HS","y":"1907496.80544","sch_addr":"1034 N WELLS ST, 60610","school_id":"609680","grades":"9, 10, 11, 12","school_typ":"Traditional"},"geometry":{"type":"Point","coordinates":[-87.6353847656341,41.90157516912679]}},{"type":"Feature","properties":{"school_nm":"RICHARDS HS","x":"1167213.75594","grade_cat":"HS","y":"1871474.64651","sch_addr":"5009 S LAFLIN ST, 60609","school_id":"609682","grades":"9, 10, 11, 12","school_typ":"Traditional"},"geometry":{"type":"Point","coordinates":[-87.66227784587741,41.80288137497483]}},{"type":"Feature","properties":{"school_nm":"NORTH-GRAND HS","x":"1147045.0033","grade_cat":"HS","y":"1910971.37034","sch_addr":"4338 W WABANSIA AVE, 60639","school_id":"609691","grades":"9, 10, 11, 12","school_typ":"Traditional"},"geometry":{"type":"Point","coordinates":[-87.73523755588572,41.91167369206698]}},{"type":"Feature","properties":{"school_nm":"SIMEON HS","x":"1174708.08905","grade_cat":"HS","y":"1850726.11682","sch_addr":"8147 S VINCENNES AVE, 60620","school_id":"609692","grades":"9, 10, 11, 12","school_typ":"Traditional"},"geometry":{"type":"Point","coordinates":[-87.63541036888441,41.74578123023072]}},{"type":"Feature","properties":{"school_nm":"WESTINGHOUSE HS","x":"1154698.22454","grade_cat":"HS","y":"1903119.37259","sch_addr":"3223 W FRANKLIN BLVD, 60624","school_id":"609693","grades":"9, 10, 11, 12","school_typ":"Traditional"},"geometry":{"type":"Point","coordinates":[-87.70733230830211,41.88997720311543]}},{"type":"Feature","properties":{"school_nm":"HANCOCK HS","x":"1150286.28619","grade_cat":"HS","y":"1867187.9461","sch_addr":"4034 W 56TH ST, 60629","school_id":"609694","grades":"9, 10, 11, 12","school_typ":"Traditional"},"geometry":{"type":"Point","coordinates":[-87.7244704643747,41.79146390854953]}},{"type":"Feature","properties":{"school_nm":"AMUNDSEN HS","x":"1162044.29876","grade_cat":"HS","y":"1934182.91578","sch_addr":"5110 N DAMEN AVE, 60625","school_id":"609695","grades":"9, 10, 11, 12","school_typ":"Traditional"},"geometry":{"type":"Point","coordinates":[-87.67948421494859,41.97506725585589]}},{"type":"Feature","properties":{"school_nm":"BOGAN HS","x":"1151315.28118","grade_cat":"HS","y":"1851857.85635","sch_addr":"3939 W 79TH ST, 60652","school_id":"609698","grades":"9, 10, 11, 12","school_typ":"Traditional"},"geometry":{"type":"Point","coordinates":[-87.72109744629778,41.749375609339616]}},{"type":"Feature","properties":{"school_nm":"FARRAGUT HS","x":"1154434.11287","grade_cat":"HS","y":"1888024.25974","sch_addr":"2345 S CHRISTIANA AVE, 60623","school_id":"609704","grades":"PK, 9, 10, 11, 12","school_typ":"Traditional"},"geometry":{"type":"Point","coordinates":[-87.70870563225235,41.84855987384877]}},{"type":"Feature","properties":{"school_nm":"FENGER HS","x":"1174282.58531","grade_cat":"HS","y":"1830377.31828","sch_addr":"11220 S WALLACE ST, 60628","school_id":"609705","grades":"9, 10, 11, 12","school_typ":"Traditional"},"geometry":{"type":"Point","coordinates":[-87.63757205080117,41.68995072454672]}},{"type":"Feature","properties":{"school_nm":"FOREMAN HS","x":"1141823.50554","grade_cat":"HS","y":"1921184.09139","sch_addr":"3235 N LECLAIRE AVE, 60641","school_id":"609708","grades":"9, 10, 11, 12","school_typ":"Traditional"},"geometry":{"type":"Point","coordinates":[-87.75416654390553,41.939796767286225]}},{"type":"Feature","properties":{"school_nm":"GAGE PARK HS","x":"1159972.88296","grade_cat":"HS","y":"1867094.17266","sch_addr":"5630 S ROCKWELL ST, 60629","school_id":"609709","grades":"9, 10, 11, 12","school_typ":"Traditional"},"geometry":{"type":"Point","coordinates":[-87.6889539419451,41.79101283821026]}},{"type":"Feature","properties":{"school_nm":"HARLAN HS","x":"1178826.0608","grade_cat":"HS","y":"1840771.66888","sch_addr":"9652 S MICHIGAN AVE, 60628","school_id":"609710","grades":"9, 10, 11, 12","school_typ":"Traditional"},"geometry":{"type":"Point","coordinates":[-87.6206234362719,41.71837234558635]}},{"type":"Feature","properties":{"school_nm":"HARPER HS","x":"1165434.74441","grade_cat":"HS","y":"1861345.65299","sch_addr":"6520 S WOOD ST, 60636","school_id":"609711","grades":"10, 11, 12","school_typ":"Traditional"},"geometry":{"type":"Point","coordinates":[-87.6690892964138,41.77512408303257]}},{"type":"Feature","properties":{"school_nm":"HIRSCH HS","x":"1183875.33417","grade_cat":"HS","y":"1853705.47602","sch_addr":"7740 S INGLESIDE AVE, 60619","school_id":"609712","grades":"9, 10, 11, 12","school_typ":"Traditional"},"geometry":{"type":"Point","coordinates":[-87.60172726636009,41.75374795516494]}},{"type":"Feature","properties":{"school_nm":"HYDE PARK HS","x":"1187908.68634","grade_cat":"HS","y":"1864129.36166","sch_addr":"6220 S STONY ISLAND AVE, 60637","school_id":"609713","grades":"9, 10, 11, 12","school_typ":"Traditional"},"geometry":{"type":"Point","coordinates":[-87.58661500994783,41.78225692669282]}},{"type":"Feature","properties":{"school_nm":"KELLY HS","x":"1158347.59651","grade_cat":"HS","y":"1877182.22959","sch_addr":"4136 S CALIFORNIA AVE, 60632","school_id":"609715","grades":"9, 10, 11, 12","school_typ":"Traditional"},"geometry":{"type":"Point","coordinates":[-87.69463865990906,41.81872906307833]}},{"type":"Feature","properties":{"school_nm":"KELVYN PARK HS","x":"1146796.5622","grade_cat":"HS","y":"1916889.51303","sch_addr":"4343 W WRIGHTWOOD AVE, 60639","school_id":"609716","grades":"7, 8, 9, 10, 11, 12","school_typ":"Traditional"},"geometry":{"type":"Point","coordinates":[-87.73599882158966,41.92791840231072]}},{"type":"Feature","properties":{"school_nm":"KENNEDY HS","x":"1134917.8996","grade_cat":"HS","y":"1866536.56387","sch_addr":"6325 W 56TH ST, 60638","school_id":"609718","grades":"9, 10, 11, 12","school_typ":"Traditional"},"geometry":{"type":"Point","coordinates":[-87.7808397551086,41.7899612521533]}},{"type":"Feature","properties":{"school_nm":"LAKE VIEW HS","x":"1164965.40808","grade_cat":"HS","y":"1926806.38198","sch_addr":"4015 N ASHLAND AVE, 60613","school_id":"609719","grades":"9, 10, 11, 12","school_typ":"Traditional"},"geometry":{"type":"Point","coordinates":[-87.66895268958682,41.95476406721259]}},{"type":"Feature","properties":{"school_nm":"LANE TECH HS","x":"1158987.12345","grade_cat":"HS","y":"1923801.86666","sch_addr":"2501 W ADDISON ST, 60618","school_id":"609720","grades":"7, 8, 9, 10, 11, 12","school_typ":"Traditional"},"geometry":{"type":"Point","coordinates":[-87.69101262674111,41.94664457419042]}},{"type":"Feature","properties":{"school_nm":"MANLEY HS","x":"1156774.31521","grade_cat":"HS","y":"1896196.72076","sch_addr":"2935 W POLK ST, 60612","school_id":"609722","grades":"9, 10, 11, 12","school_typ":"Traditional"},"geometry":{"type":"Point","coordinates":[-87.69989559044011,41.870938955765155]}},{"type":"Feature","properties":{"school_nm":"MARSHALL HS","x":"1154533.41254","grade_cat":"HS","y":"1898915.29275","sch_addr":"3250 W ADAMS ST, 60624","school_id":"609723","grades":"9, 10, 11, 12","school_typ":"Traditional"},"geometry":{"type":"Point","coordinates":[-87.70805006977712,41.878444085129374]}},{"type":"Feature","properties":{"school_nm":"MATHER HS","x":"1155753.20636","grade_cat":"HS","y":"1938698.86541","sch_addr":"5835 N LINCOLN AVE, 60659","school_id":"609724","grades":"9, 10, 11, 12","school_typ":"Traditional"},"geometry":{"type":"Point","coordinates":[-87.7024963956971,41.98758868185385]}},{"type":"Feature","properties":{"school_nm":"MORGAN PARK HS","x":"1166605.69384","grade_cat":"HS","y":"1831076.09706","sch_addr":"1744 W PRYOR AVE, 60643","school_id":"609725","grades":"7, 8, 9, 10, 11, 12","school_typ":"Traditional"},"geometry":{"type":"Point","coordinates":[-87.66565754522058,41.6920350088894]}},{"type":"Feature","properties":{"school_nm":"BROOKS HS","x":"1180069.73778","grade_cat":"HS","y":"1831449.42965","sch_addr":"250 E 111TH ST, 60628","school_id":"609726","grades":"7, 8, 9, 10, 11, 12","school_typ":"Traditional"},"geometry":{"type":"Point","coordinates":[-87.61635260657202,41.692762528429355]}},{"type":"Feature","properties":{"school_nm":"PHILLIPS HS","x":"1178732.89793","grade_cat":"HS","y":"1879219.72354","sch_addr":"244 E PERSHING RD, 60653","school_id":"609727","grades":"9, 10, 11, 12","school_typ":"Traditional"},"geometry":{"type":"Point","coordinates":[-87.61979634572873,41.82387996738068]}},{"type":"Feature","properties":{"school_nm":"ROOSEVELT HS","x":"1152463.084","grade_cat":"HS","y":"1930380.29183","sch_addr":"3436 W WILSON AVE, 60625","school_id":"609728","grades":"8, 9, 10, 11, 12","school_typ":"Traditional"},"geometry":{"type":"Point","coordinates":[-87.71481861559978,41.96482788378516]}},{"type":"Feature","properties":{"school_nm":"SCHURZ HS","x":"1146854.92822","grade_cat":"HS","y":"1923612.05635","sch_addr":"3601 N MILWAUKEE AVE, 60641","school_id":"609729","grades":"9, 10, 11, 12","school_typ":"Traditional"},"geometry":{"type":"Point","coordinates":[-87.73561211048235,41.94636454274745]}},{"type":"Feature","properties":{"school_nm":"SENN HS","x":"1165362.41286","grade_cat":"HS","y":"1939296.35142","sch_addr":"5900 N GLENWOOD AVE, 60660","school_id":"609730","grades":"9, 10, 11, 12","school_typ":"Traditional"},"geometry":{"type":"Point","coordinates":[-87.66713618982065,41.98902853847887]}},{"type":"Feature","properties":{"school_nm":"STEINMETZ HS","x":"1133848.33055","grade_cat":"HS","y":"1919614.44131","sch_addr":"3030 N MOBILE AVE, 60634","school_id":"609732","grades":"9, 10, 11, 12","school_typ":"Traditional"},"geometry":{"type":"Point","coordinates":[-87.78351523288265,41.93563358725084]}},{"type":"Feature","properties":{"school_nm":"SULLIVAN HS","x":"1164764.87337","grade_cat":"HS","y":"1944269.44121","sch_addr":"6631 N BOSWORTH AVE, 60626","school_id":"609733","grades":"9, 10, 11, 12","school_typ":"Traditional"},"geometry":{"type":"Point","coordinates":[-87.66919214534073,42.002687558010145]}},{"type":"Feature","properties":{"school_nm":"TAFT HS","x":"1131553.87779","grade_cat":"HS","y":"1936846.77364","sch_addr":"6530 W BRYN MAWR AVE, 60631","school_id":"609734","grades":"7, 8, 9, 10, 11, 12","school_typ":"Traditional"},"geometry":{"type":"Point","coordinates":[-87.79154724941422,41.98296098619859]}},{"type":"Feature","properties":{"school_nm":"TILDEN HS","x":"1172465.49314","grade_cat":"HS","y":"1873203.01675","sch_addr":"4747 S UNION AVE, 60609","school_id":"609735","grades":"9, 10, 11, 12","school_typ":"Traditional"},"geometry":{"type":"Point","coordinates":[-87.64296648354815,41.80751007096626]}},{"type":"Feature","properties":{"school_nm":"VON STEUBEN HS","x":"1152830.59869","grade_cat":"HS","y":"1933428.49242","sch_addr":"5039 N KIMBALL AVE, 60625","school_id":"609737","grades":"9, 10, 11, 12","school_typ":"Traditional"},"geometry":{"type":"Point","coordinates":[-87.71338625328654,41.97318504807329]}},{"type":"Feature","properties":{"school_nm":"LINCOLN PARK HS","x":"1171312.78449","grade_cat":"HS","y":"1913556.44949","sch_addr":"2001 N ORCHARD ST, 60614","school_id":"609738","grades":"9, 10, 11, 12","school_typ":"Traditional"},"geometry":{"type":"Point","coordinates":[-87.64600935976243,41.91826831075271]}},{"type":"Feature","properties":{"school_nm":"WASHINGTON HS","x":"1201602.2623","grade_cat":"HS","y":"1829952.86046","sch_addr":"3535 E 114TH ST, 60617","school_id":"609739","grades":"9, 10, 11, 12","school_typ":"Traditional"},"geometry":{"type":"Point","coordinates":[-87.53757030027741,41.688136935625785]}},{"type":"Feature","properties":{"school_nm":"WELLS HS","x":"1165523.02343","grade_cat":"HS","y":"1906487.02695","sch_addr":"936 N ASHLAND AVE, 60622","school_id":"609740","grades":"9, 10, 11, 12","school_typ":"Traditional"},"geometry":{"type":"Point","coordinates":[-87.66748286896365,41.89899470698043]}},{"type":"Feature","properties":{"school_nm":"HUBBARD HS","x":"1152075.55754","grade_cat":"HS","y":"1863214.93009","sch_addr":"6200 S HAMLIN AVE, 60629","school_id":"609741","grades":"9, 10, 11, 12","school_typ":"Traditional"},"geometry":{"type":"Point","coordinates":[-87.71801374323086,41.780526386627955]}},{"type":"Feature","properties":{"school_nm":"NORTHSIDE LEARNING HS","x":"1150357.81459","grade_cat":"HS","y":"1936977.51124","sch_addr":"3730 W BRYN MAWR AVE, 60659","school_id":"609744","grades":"9, 10, 11, 12","school_typ":"Specialty"},"geometry":{"type":"Point","coordinates":[-87.72238621544285,41.98297252121619]}},{"type":"Feature","properties":{"school_nm":"SOUTHSIDE HS","x":"1163606.76611","grade_cat":"HS","y":"1855766.41481","sch_addr":"7342 S HOYNE AVE, 60636","school_id":"609745","grades":"11, 12","school_typ":"Specialty"},"geometry":{"type":"Point","coordinates":[-87.67594676756123,41.75985242841147]}},{"type":"Feature","properties":{"school_nm":"KENWOOD HS","x":"1186802.91919","grade_cat":"HS","y":"1871960.37979","sch_addr":"5015 S BLACKSTONE AVE, 60615","school_id":"609746","grades":"7, 8, 9, 10, 11, 12","school_typ":"Traditional"},"geometry":{"type":"Point","coordinates":[-87.59042088945237,41.803772118508014]}},{"type":"Feature","properties":{"school_nm":"YORK HS","x":"1158113.52381","grade_cat":"HS","y":"1885855.14531","sch_addr":"2700 S CALIFORNIA AVE, 60608","school_id":"609748","grades":"9, 10, 11, 12","school_typ":"Options"},"geometry":{"type":"Point","coordinates":[-87.6952610158806,41.84253334794401]}},{"type":"Feature","properties":{"school_nm":"NORTHSIDE PREP HS","x":"1154081.20019","grade_cat":"HS","y":"1936400.42906","sch_addr":"5501 N KEDZIE AVE, 60625","school_id":"609749","grades":"9, 10, 11, 12","school_typ":"Traditional"},"geometry":{"type":"Point","coordinates":[-87.70870780077357,41.98131528213096]}},{"type":"Feature","properties":{"school_nm":"SIMPSON HS","x":"1165283.33789","grade_cat":"HS","y":"1893865.5558","sch_addr":"1321 S PAULINA ST, 60608","school_id":"609750","grades":"6, 7, 8, 9, 10, 11, 12","school_typ":"Options"},"geometry":{"type":"Point","coordinates":[-87.6687222293137,41.86436548208224]}},{"type":"Feature","properties":{"school_nm":"KING HS","x":"1183104.35244","grade_cat":"HS","y":"1875537.68793","sch_addr":"4445 S DREXEL BLVD, 60653","school_id":"609751","grades":"9, 10, 11, 12","school_typ":"Traditional"},"geometry":{"type":"Point","coordinates":[-87.60387386164147,41.81367545211025]}},{"type":"Feature","properties":{"school_nm":"CHICAGO AGRICULTURE HS","x":"1152374.8765","grade_cat":"HS","y":"1830673.3728","sch_addr":"3857 W 111TH ST, 60655","school_id":"609753","grades":"9, 10, 11, 12","school_typ":"Traditional"},"geometry":{"type":"Point","coordinates":[-87.71776967268775,41.69122074178622]}},{"type":"Feature","properties":{"school_nm":"CHICAGO MILITARY HS","x":"1178870.98525","grade_cat":"HS","y":"1881653.38567","sch_addr":"3519 S GILES AVE, 60653","school_id":"609754","grades":"9, 10, 11, 12","school_typ":"Traditional"},"geometry":{"type":"Point","coordinates":[-87.61921554223582,41.83055497708962]}},{"type":"Feature","properties":{"school_nm":"YOUNG HS","x":"1166465.63113","grade_cat":"HS","y":"1899063.01194","sch_addr":"211 S LAFLIN ST, 60607","school_id":"609755","grades":"7, 8, 9, 10, 11, 12","school_typ":"Traditional"},"geometry":{"type":"Point","coordinates":[-87.6642333434002,41.878602532328486]}},{"type":"Feature","properties":{"school_nm":"CURIE HS","x":"1150918.57397","grade_cat":"HS","y":"1871418.25916","sch_addr":"4959 S ARCHER AVE, 60632","school_id":"609756","grades":"9, 10, 11, 12","school_typ":"Traditional"},"geometry":{"type":"Point","coordinates":[-87.72204165467807,41.803060206697396]}},{"type":"Feature","properties":{"school_nm":"CLEMENTE HS","x":"1160225.18002","grade_cat":"HS","y":"1907769.7524","sch_addr":"1147 N WESTERN AVE, 60622","school_id":"609759","grades":"9, 10, 11, 12","school_typ":"Traditional"},"geometry":{"type":"Point","coordinates":[-87.68690614585311,41.9026257915793]}},{"type":"Feature","properties":{"school_nm":"CARVER MILITARY HS","x":"1187212.24744","grade_cat":"HS","y":"1818218.85604","sch_addr":"13100 S DOTY AVE, 60627","school_id":"609760","grades":"9, 10, 11, 12","school_typ":"Traditional"},"geometry":{"type":"Point","coordinates":[-87.59062038515513,41.65628995142258]}},{"type":"Feature","properties":{"school_nm":"CORLISS HS","x":"1184160.81785","grade_cat":"HS","y":"1836548.13894","sch_addr":"821 E 103RD ST, 60628","school_id":"609761","grades":"9, 10, 11, 12","school_typ":"Traditional"},"geometry":{"type":"Point","coordinates":[-87.60121587665988,41.70665961641773]}},{"type":"Feature","properties":{"school_nm":"JULIAN HS","x":"1169818.37081","grade_cat":"HS","y":"1836138.80019","sch_addr":"10330 S ELIZABETH ST, 60643","school_id":"609762","grades":"9, 10, 11, 12","school_typ":"Traditional"},"geometry":{"type":"Point","coordinates":[-87.65374921077066,41.705858935588914]}},{"type":"Feature","properties":{"school_nm":"JUAREZ HS","x":"1166510.41352","grade_cat":"HS","y":"1889613.07284","sch_addr":"1450 W CERMAK RD, 60608","school_id":"609764","grades":"9, 10, 11, 12","school_typ":"Traditional"},"geometry":{"type":"Point","coordinates":[-87.66433930958303,41.85267013572381]}},{"type":"Feature","properties":{"school_nm":"VAUGHN HS","x":"1138917.95722","grade_cat":"HS","y":"1928659.65025","sch_addr":"4355 N LINDER AVE, 60641","school_id":"609766","grades":"9, 10, 11, 12","school_typ":"Specialty"},"geometry":{"type":"Point","coordinates":[-87.76466317336318,41.960363795857305]}},{"type":"Feature","properties":{"school_nm":"HOPE HS","x":"1172976.01706","grade_cat":"HS","y":"1868121.08859","sch_addr":"5515 S LOWE AVE, 60621","school_id":"609768","grades":"10, 11, 12","school_typ":"Traditional"},"geometry":{"type":"Point","coordinates":[-87.64124410920577,41.793553466470584]}},{"type":"Feature","properties":{"school_nm":"GRAHAM HS","x":"1177151.28462","grade_cat":"HS","y":"1888607.05287","sch_addr":"2347 S WABASH AVE, 60616","school_id":"609769","grades":"9, 10, 11, 12","school_typ":"Specialty"},"geometry":{"type":"Point","coordinates":[-87.62531481527424,41.84967541708467]}},{"type":"Feature","properties":{"school_nm":"ADDAMS","x":"1202821.23689","grade_cat":"ES","y":"1833827.68277","sch_addr":"10810 S AVENUE H, 60617","school_id":"609772","grades":"PK, K, 1, 2, 3, 4, 5, 6, 7, 8","school_typ":"Traditional"},"geometry":{"type":"Point","coordinates":[-87.53297604181783,41.69873879907316]}},{"type":"Feature","properties":{"school_nm":"AGASSIZ","x":"1168485.841","grade_cat":"ES","y":"1919313.00458","sch_addr":"2851 N SEMINARY AVE, 60657","school_id":"609773","grades":"PK, K, 1, 2, 3, 4, 5, 6, 7, 8","school_typ":"Traditional"},"geometry":{"type":"Point","coordinates":[-87.65622866744738,41.93412629749406]}},{"type":"Feature","properties":{"school_nm":"ARMOUR","x":"1170293.58377","grade_cat":"ES","y":"1882785.84797","sch_addr":"950 W 33RD PL, 60608","school_id":"609777","grades":"PK, K, 1, 2, 3, 4, 5, 6, 7, 8","school_typ":"Traditional"},"geometry":{"type":"Point","coordinates":[-87.65065315649788,41.83385390882868]}},{"type":"Feature","properties":{"school_nm":"ARMSTRONG G","x":"1160599.34988","grade_cat":"ES","y":"1946957.01655","sch_addr":"2110 W GREENLEAF AVE, 60645","school_id":"609779","grades":"PK, K, 1, 2, 3, 4, 5, 6, 7, 8","school_typ":"Traditional"},"geometry":{"type":"Point","coordinates":[-87.6844418273605,42.01014998373587]}},{"type":"Feature","properties":{"school_nm":"MARINE LEADERSHIP AT AMES HS","x":"1150706.91428","grade_cat":"HS","y":"1912590.04722","sch_addr":"1920 N HAMLIN AVE, 60647","school_id":"609780","grades":"7, 8, 9, 10, 11, 12","school_typ":"Traditional"},"geometry":{"type":"Point","coordinates":[-87.72174231678147,41.91604463306548]}},{"type":"Feature","properties":{"school_nm":"AUDUBON","x":"1161704.19413","grade_cat":"ES","y":"1923245.74015","sch_addr":"3500 N HOYNE AVE, 60618","school_id":"609782","grades":"PK, K, 1, 2, 3, 4, 5, 6, 7, 8","school_typ":"Traditional"},"geometry":{"type":"Point","coordinates":[-87.68104105313787,41.94506222430422]}},{"type":"Feature","properties":{"school_nm":"JEFFERSON HS","x":"1162088.02604","grade_cat":"HS","y":"1895104.40601","sch_addr":"1100 S HAMILTON AVE, 60612","school_id":"609783","grades":"6, 7, 8, 9, 10, 11, 12","school_typ":"Options"},"geometry":{"type":"Point","coordinates":[-87.68041755457105,41.867832284629486]}},{"type":"Feature","properties":{"school_nm":"AVALON PARK","x":"1186641.26466","grade_cat":"ES","y":"1851724.50721","sch_addr":"8045 S KENWOOD AVE, 60619","school_id":"609786","grades":"PK, K, 1, 2, 3, 4, 5, 6, 7, 8","school_typ":"Traditional"},"geometry":{"type":"Point","coordinates":[-87.59165381085134,41.74824699397219]}},{"type":"Feature","properties":{"school_nm":"BARNARD","x":"1168639.44896","grade_cat":"ES","y":"1835864.26301","sch_addr":"10354 S CHARLES ST, 60643","school_id":"609788","grades":"PK, K, 1, 2, 3, 4, 5, 6, 7, 8","school_typ":"Traditional"},"geometry":{"type":"Point","coordinates":[-87.65807422406259,41.705131011309035]}},{"type":"Feature","properties":{"school_nm":"BARRY","x":"1145862.60836","grade_cat":"ES","y":"1918556.50314","sch_addr":"2828 N KILBOURN AVE, 60641","school_id":"609789","grades":"PK, K, 1, 2, 3, 4, 5, 6","school_typ":"Traditional"},"geometry":{"type":"Point","coordinates":[-87.73938835103296,41.93251058278424]}},{"type":"Feature","properties":{"school_nm":"BARTON","x":"1164992.17279","grade_cat":"ES","y":"1853714.98453","sch_addr":"7650 S WOLCOTT AVE, 60620","school_id":"609790","grades":"PK, K, 1, 2, 3, 4, 5, 6, 7, 8","school_typ":"Traditional"},"geometry":{"type":"Point","coordinates":[-87.67092712872531,41.75419384978611]}},{"type":"Feature","properties":{"school_nm":"BASS","x":"1169680.7182","grade_cat":"ES","y":"1861059.00987","sch_addr":"1140 W 66TH ST, 60621","school_id":"609791","grades":"PK, K, 1, 2, 3, 4, 5, 6, 7, 8","school_typ":"Traditional"},"geometry":{"type":"Point","coordinates":[-87.65353242019691,41.77424645004429]}},{"type":"Feature","properties":{"school_nm":"BATEMAN","x":"1155925.96881","grade_cat":"ES","y":"1927997.41962","sch_addr":"4220 N RICHMOND ST, 60618","school_id":"609792","grades":"PK, K, 1, 2, 3, 4, 5, 6, 7, 8","school_typ":"Traditional"},"geometry":{"type":"Point","coordinates":[-87.70215096179008,41.95821983888024]}},{"type":"Feature","properties":{"school_nm":"NICHOLSON","x":"1171307.97905","grade_cat":"ES","y":"1864969.6966","sch_addr":"6006 S PEORIA ST, 60621","school_id":"609793","grades":"PK, K, 1, 2, 3, 4, 5, 6, 7, 8","school_typ":"Traditional"},"geometry":{"type":"Point","coordinates":[-87.64745284245632,41.78494237979363]}},{"type":"Feature","properties":{"school_nm":"EDISON","x":"1153945.22736","grade_cat":"ES","y":"1932824.73543","sch_addr":"4929 N SAWYER AVE, 60625","school_id":"609794","grades":"K, 1, 2, 3, 4, 5, 6, 7, 8","school_typ":"Traditional"},"geometry":{"type":"Point","coordinates":[-87.70930366577336,41.97150609649997]}},{"type":"Feature","properties":{"school_nm":"CLARK ES","x":"1137574.22336","grade_cat":"ES","y":"1894923.62324","sch_addr":"1045 S MONITOR AVE, 60644","school_id":"609795","grades":"PK, K, 1, 2, 3, 4, 5, 6, 7, 8","school_typ":"Traditional"},"geometry":{"type":"Point","coordinates":[-87.77041752738367,41.867812567517284]}},{"type":"Feature","properties":{"school_nm":"BEAUBIEN","x":"1140819.06857","grade_cat":"ES","y":"1933056.37243","sch_addr":"5025 N LARAMIE AVE, 60630","school_id":"609796","grades":"PK, K, 1, 2, 3, 4, 5, 6, 7, 8","school_typ":"Traditional"},"geometry":{"type":"Point","coordinates":[-87.75756503918218,41.97239394466906]}},{"type":"Feature","properties":{"school_nm":"BEIDLER","x":"1155112.92745","grade_cat":"ES","y":"1901425.60925","sch_addr":"3151 W WALNUT ST, 60612","school_id":"609797","grades":"PK, K, 1, 2, 3, 4, 5, 6, 7, 8","school_typ":"Traditional"},"geometry":{"type":"Point","coordinates":[-87.70585481200737,41.885321039474746]}},{"type":"Feature","properties":{"school_nm":"BELDING","x":"1147256.08195","grade_cat":"ES","y":"1928197.06621","sch_addr":"4257 N TRIPP AVE, 60641","school_id":"609798","grades":"PK, K, 1, 2, 3, 4, 5, 6, 7, 8","school_typ":"Traditional"},"geometry":{"type":"Point","coordinates":[-87.73401972967199,41.95893849363402]}},{"type":"Feature","properties":{"school_nm":"BELL","x":"1160337.86254","grade_cat":"ES","y":"1924863.47248","sch_addr":"3730 N OAKLEY AVE, 60618","school_id":"609799","grades":"K, 1, 2, 3, 4, 5, 6, 7, 8","school_typ":"Traditional"},"geometry":{"type":"Point","coordinates":[-87.68601824433433,41.9495297982333]}},{"type":"Feature","properties":{"school_nm":"BENNETT","x":"1179732.74829","grade_cat":"ES","y":"1837886.69236","sch_addr":"10115 S PRAIRIE AVE, 60628","school_id":"609800","grades":"PK, K, 1, 2, 3, 4, 5, 6, 7, 8","school_typ":"Traditional"},"geometry":{"type":"Point","coordinates":[-87.61739045570121,41.71043494844108]}},{"type":"Feature","properties":{"school_nm":"BLAINE","x":"1166060.63522","grade_cat":"ES","y":"1925363.19097","sch_addr":"1420 W GRACE ST, 60613","school_id":"609803","grades":"PK, K, 1, 2, 3, 4, 5, 6, 7, 8","school_typ":"Traditional"},"geometry":{"type":"Point","coordinates":[-87.66496784467402,41.95078051805864]}},{"type":"Feature","properties":{"school_nm":"BOONE","x":"1157078.8543","grade_cat":"ES","y":"1944474.95327","sch_addr":"6710 N WASHTENAW AVE, 60645","school_id":"609804","grades":"PK, K, 1, 2, 3, 4, 5, 6, 7, 8","school_typ":"Traditional"},"geometry":{"type":"Point","coordinates":[-87.69746282205826,42.00341160727272]}},{"type":"Feature","properties":{"school_nm":"JOPLIN","x":"1165431.88713","grade_cat":"ES","y":"1851949.26463","sch_addr":"7931 S HONORE ST, 60620","school_id":"609805","grades":"PK, K, 1, 2, 3, 4, 5, 6, 7, 8","school_typ":"Traditional"},"geometry":{"type":"Point","coordinates":[-87.66936564961709,41.74933916080359]}},{"type":"Feature","properties":{"school_nm":"BRADWELL","x":"1196038.88957","grade_cat":"ES","y":"1854036.97502","sch_addr":"7736 S BURNHAM AVE, 60649","school_id":"609806","grades":"PK, K, 1, 2, 3, 4, 5, 6, 7, 8","school_typ":"Traditional"},"geometry":{"type":"Point","coordinates":[-87.5571419710349,41.754365131246374]}},{"type":"Feature","properties":{"school_nm":"HAMPTON","x":"1154678.9444","grade_cat":"ES","y":"1853369.39992","sch_addr":"3434 W 77TH ST, 60652","school_id":"609807","grades":"K, 1, 2, 3, 4, 5, 6, 7, 8","school_typ":"Traditional"},"geometry":{"type":"Point","coordinates":[-87.70873128447809,41.75345719265228]}},{"type":"Feature","properties":{"school_nm":"HALEY","x":"1175368.43616","grade_cat":"ES","y":"1829186.92564","sch_addr":"11411 S EGGLESTON AVE, 60628","school_id":"609808","grades":"PK, K, 1, 2, 3, 4, 5, 6, 7, 8","school_typ":"Traditional"},"geometry":{"type":"Point","coordinates":[-87.63363213619498,41.686659969507105]}},{"type":"Feature","properties":{"school_nm":"BRENTANO","x":"1157592.77289","grade_cat":"ES","y":"1918077.86892","sch_addr":"2723 N FAIRFIELD AVE, 60647","school_id":"609809","grades":"PK, K, 1, 2, 3, 4, 5, 6, 7, 8","school_typ":"Traditional"},"geometry":{"type":"Point","coordinates":[-87.69629419836866,41.9309660958041]}},{"type":"Feature","properties":{"school_nm":"BRIDGE","x":"1129694.55637","grade_cat":"ES","y":"1924500.79145","sch_addr":"3800 N NEW ENGLAND AVE, 60634","school_id":"609810","grades":"PK, K, 1, 2, 3, 4, 5, 6, 7, 8","school_typ":"Traditional"},"geometry":{"type":"Point","coordinates":[-87.79866892056614,41.94911438626606]}},{"type":"Feature","properties":{"school_nm":"BRIGHT","x":"1194868.74197","grade_cat":"ES","y":"1834114.95975","sch_addr":"10740 S CALHOUN AVE, 60617","school_id":"609811","grades":"PK, K, 1, 2, 3, 4, 5, 6, 7, 8","school_typ":"Traditional"},"geometry":{"type":"Point","coordinates":[-87.56208422999353,41.699726221063116]}},{"type":"Feature","properties":{"school_nm":"BROWN W","x":"1164696.99326","grade_cat":"ES","y":"1900650.64656","sch_addr":"54 N HERMITAGE AVE, 60612","school_id":"609812","grades":"PK, K, 1, 2, 3, 4, 5, 6, 7, 8","school_typ":"Traditional"},"geometry":{"type":"Point","coordinates":[-87.67068239048238,41.88299678413438]}},{"type":"Feature","properties":{"school_nm":"BROWNELL","x":"1178359.14277","grade_cat":"ES","y":"1860172.22161","sch_addr":"6741 S MICHIGAN AVE, 60637","school_id":"609813","grades":"PK, K, 1, 2, 3, 4, 5, 6","school_typ":"Traditional"},"geometry":{"type":"Point","coordinates":[-87.62174596836614,41.77162035907393]}},{"type":"Feature","properties":{"school_nm":"BOUCHET","x":"1190852.10007","grade_cat":"ES","y":"1856353.05176","sch_addr":"7355 S JEFFERY BLVD, 60649","school_id":"609815","grades":"PK, K, 1, 2, 3, 4, 5, 6, 7, 8","school_typ":"Traditional"},"geometry":{"type":"Point","coordinates":[-87.57607485712315,41.76084747994678]}},{"type":"Feature","properties":{"school_nm":"BUDLONG","x":"1157400.25752","grade_cat":"ES","y":"1934398.31922","sch_addr":"2701 W FOSTER AVE, 60625","school_id":"609817","grades":"PK, K, 1, 2, 3, 4, 5, 6, 7, 8","school_typ":"Traditional"},"geometry":{"type":"Point","coordinates":[-87.69655603218193,41.97575432973367]}},{"type":"Feature","properties":{"school_nm":"BURBANK","x":"1134112.46617","grade_cat":"ES","y":"1913043.73004","sch_addr":"2035 N MOBILE AVE, 60639","school_id":"609818","grades":"PK, K, 1, 2, 3, 4, 5, 6, 7, 8","school_typ":"Traditional"},"geometry":{"type":"Point","coordinates":[-87.78269957086374,41.91759813746918]}},{"type":"Feature","properties":{"school_nm":"BURKE","x":"1179811.81441","grade_cat":"ES","y":"1869345.48148","sch_addr":"5356 S KING DR, 60615","school_id":"609819","grades":"PK, K, 1, 2, 3, 4, 5, 6, 7, 8","school_typ":"Traditional"},"geometry":{"type":"Point","coordinates":[-87.6161405235956,41.79675956372592]}},{"type":"Feature","properties":{"school_nm":"BURLEY","x":"1164767.94719","grade_cat":"ES","y":"1920672.8224","sch_addr":"1630 W BARRY AVE, 60657","school_id":"609820","grades":"PK, K, 1, 2, 3, 4, 5, 6, 7, 8","school_typ":"Traditional"},"geometry":{"type":"Point","coordinates":[-87.66985312412211,41.937937473581265]}},{"type":"Feature","properties":{"school_nm":"BURNHAM","x":"1193443.04994","grade_cat":"ES","y":"1839450.37362","sch_addr":"9928 S CRANDON AVE, 60617","school_id":"609821","grades":"PK, K, 1, 2, 3, 4, 5, 6, 7, 8","school_typ":"Traditional"},"geometry":{"type":"Point","coordinates":[-87.56713059136543,41.71440206175561]}},{"type":"Feature","properties":{"school_nm":"BURNSIDE","x":"1182395.49494","grade_cat":"ES","y":"1844485.10732","sch_addr":"650 E 91ST PL, 60619","school_id":"609827","grades":"PK, K, 1, 2, 3, 4, 5, 6, 7, 8","school_typ":"Traditional"},"geometry":{"type":"Point","coordinates":[-87.60743532128883,41.72848063790991]}},{"type":"Feature","properties":{"school_nm":"BURR","x":"1165164.65998","grade_cat":"ES","y":"1911354.0976","sch_addr":"1621 W WABANSIA AVE, 60622","school_id":"609828","grades":"PK, K, 1, 2, 3, 4, 5, 6, 7, 8","school_typ":"Traditional"},"geometry":{"type":"Point","coordinates":[-87.66866060377357,41.912357907271925]}},{"type":"Feature","properties":{"school_nm":"BURROUGHS","x":"1158914.82635","grade_cat":"ES","y":"1880881.20382","sch_addr":"3542 S WASHTENAW AVE, 60632","school_id":"609829","grades":"PK, K, 1, 2, 3, 4, 5, 6, 7, 8","school_typ":"Traditional"},"geometry":{"type":"Point","coordinates":[-87.69245662922816,41.82886790652319]}},{"type":"Feature","properties":{"school_nm":"BRUNSON","x":"1138812.90395","grade_cat":"ES","y":"1905809.54602","sch_addr":"932 N CENTRAL AVE, 60651","school_id":"609830","grades":"PK, K, 1, 2, 3, 4, 5, 6, 7, 8","school_typ":"Traditional"},"geometry":{"type":"Point","coordinates":[-87.76560565853956,41.89766257161412]}},{"type":"Feature","properties":{"school_nm":"BYRNE","x":"1131987.01209","grade_cat":"ES","y":"1868365.3509","sch_addr":"5329 S OAK PARK AVE, 60638","school_id":"609832","grades":"K, 1, 2, 3, 4, 5, 6, 7, 8","school_typ":"Traditional"},"geometry":{"type":"Point","coordinates":[-87.7915444826982,41.79503096443681]}},{"type":"Feature","properties":{"school_nm":"CALDWELL","x":"1189651.21369","grade_cat":"ES","y":"1848463.35297","sch_addr":"8546 S CREGIER AVE, 60617","school_id":"609833","grades":"PK, K, 1, 2, 3, 4, 5, 6, 7, 8","school_typ":"Traditional"},"geometry":{"type":"Point","coordinates":[-87.58072902767272,41.73922635448458]}},{"type":"Feature","properties":{"school_nm":"LITTLE VILLAGE","x":"1152100.05192","grade_cat":"ES","y":"1886235.70164","sch_addr":"2620 S LAWNDALE AVE, 60623","school_id":"609834","grades":"PK, K, 1, 2, 3, 4, 5, 6, 7, 8","school_typ":"Traditional"},"geometry":{"type":"Point","coordinates":[-87.71731895269359,41.84369811757608]}},{"type":"Feature","properties":{"school_nm":"CAMERON","x":"1151777.46792","grade_cat":"ES","y":"1908132.65456","sch_addr":"1234 N MONTICELLO AVE, 60651","school_id":"609835","grades":"PK, K, 1, 2, 3, 4, 5, 6, 7, 8","school_typ":"Traditional"},"geometry":{"type":"Point","coordinates":[-87.71792663520327,41.90379211711643]}},{"type":"Feature","properties":{"school_nm":"CANTY","x":"1121365.51398","grade_cat":"ES","y":"1924046.78382","sch_addr":"3740 N PANAMA AVE, 60634","school_id":"609836","grades":"PK, K, 1, 2, 3, 4, 5, 6, 7, 8","school_typ":"Traditional"},"geometry":{"type":"Point","coordinates":[-87.8292957010156,41.948007027273874]}},{"type":"Feature","properties":{"school_nm":"CARNEGIE","x":"1186765.1358","grade_cat":"ES","y":"1864524.47439","sch_addr":"1414 E 61ST PL, 60637","school_id":"609837","grades":"PK, K, 1, 2, 3, 4, 5, 6, 7, 8","school_typ":"Traditional"},"geometry":{"type":"Point","coordinates":[-87.59079500925881,41.78336832270084]}},{"type":"Feature","properties":{"school_nm":"CARROLL","x":"1158179.05321","grade_cat":"ES","y":"1849408.21493","sch_addr":"2929 W 83RD ST, 60652","school_id":"609839","grades":"PK, K, 1, 2, 3, 4, 5, 6, 7, 8","school_typ":"Traditional"},"geometry":{"type":"Point","coordinates":[-87.69601207513412,41.742516625773]}},{"type":"Feature","properties":{"school_nm":"CARSON","x":"1160281.50832","grade_cat":"ES","y":"1867919.80979","sch_addr":"5516 S MAPLEWOOD AVE, 60629","school_id":"609842","grades":"PK, K, 1, 2, 3, 4, 5, 6, 7, 8","school_typ":"Traditional"},"geometry":{"type":"Point","coordinates":[-87.68779954321866,41.79327214337314]}},{"type":"Feature","properties":{"school_nm":"CARTER","x":"1178111.49301","grade_cat":"ES","y":"1866805.33039","sch_addr":"5740 S MICHIGAN AVE, 60637","school_id":"609844","grades":"PK, K, 1, 2, 3, 4, 5, 6, 7, 8","school_typ":"Traditional"},"geometry":{"type":"Point","coordinates":[-87.62245275191152,41.78982790446188]}},{"type":"Feature","properties":{"school_nm":"CARVER G","x":"1184789.44192","grade_cat":"ES","y":"1817255.06696","sch_addr":"901 E 133RD PL, 60827","school_id":"609845","grades":"PK, K, 1, 2, 3, 4, 5, 6, 7, 8","school_typ":"Traditional"},"geometry":{"type":"Point","coordinates":[-87.59951563220227,41.65370211546621]}},{"type":"Feature","properties":{"school_nm":"ALDRIDGE","x":"1182876.49496","grade_cat":"ES","y":"1818588.2221","sch_addr":"630 E 131ST ST, 60827","school_id":"609848","grades":"PK, K, 1, 2, 3, 4, 5, 6, 7, 8","school_typ":"Traditional"},"geometry":{"type":"Point","coordinates":[-87.60647384691308,41.65740496962151]}},{"type":"Feature","properties":{"school_nm":"CASSELL","x":"1156360.30915","grade_cat":"ES","y":"1829290.59506","sch_addr":"11314 S SPAULDING AVE, 60655","school_id":"609849","grades":"K, 1, 2, 3, 4, 5, 6, 7, 8","school_typ":"Traditional"},"geometry":{"type":"Point","coordinates":[-87.70321548828544,41.6873470545929]}},{"type":"Feature","properties":{"school_nm":"GREELEY","x":"1169859.81561","grade_cat":"ES","y":"1926132.54737","sch_addr":"832 W SHERIDAN RD, 60613","school_id":"609850","grades":"PK, K, 1, 2, 3, 4, 5, 6, 7, 8","school_typ":"Traditional"},"geometry":{"type":"Point","coordinates":[-87.65097986936915,41.952809511187816]}},{"type":"Feature","properties":{"school_nm":"CHALMERS","x":"1158049.24999","grade_cat":"ES","y":"1894564.93235","sch_addr":"2745 W ROOSEVELT RD, 60608","school_id":"609851","grades":"PK, K, 1, 2, 3, 4, 5, 6, 7, 8","school_typ":"Traditional"},"geometry":{"type":"Point","coordinates":[-87.6952593685406,41.866435251350666]}},{"type":"Feature","properties":{"school_nm":"CHAPPELL","x":"1161014.32083","grade_cat":"ES","y":"1934476.47327","sch_addr":"2135 W FOSTER AVE, 60625","school_id":"609852","grades":"PK, K, 1, 2, 3, 4, 5, 6, 7, 8","school_typ":"Traditional"},"geometry":{"type":"Point","coordinates":[-87.68326359190789,41.97589429991424]}},{"type":"Feature","properties":{"school_nm":"CHASE","x":"1158099.26663","grade_cat":"ES","y":"1913353.83343","sch_addr":"2021 N POINT ST, 60647","school_id":"609853","grades":"PK, K, 1, 2, 3, 4, 5, 6, 7, 8","school_typ":"Traditional"},"geometry":{"type":"Point","coordinates":[-87.69456225149781,41.91799265283444]}},{"type":"Feature","properties":{"school_nm":"CHOPIN","x":"1159688.57283","grade_cat":"ES","y":"1905610.85875","sch_addr":"2450 W RICE ST, 60622","school_id":"609854","grades":"PK, K, 1, 2, 3, 4, 5, 6, 7, 8","school_typ":"Traditional"},"geometry":{"type":"Point","coordinates":[-87.68893676245328,41.89671268815487]}},{"type":"Feature","properties":{"school_nm":"CHRISTOPHER","x":"1160856.37102","grade_cat":"ES","y":"1870980.28661","sch_addr":"5042 S ARTESIAN AVE, 60632","school_id":"609855","grades":"K, 1, 2, 3, 4, 5, 6, 7, 8","school_typ":"Traditional"},"geometry":{"type":"Point","coordinates":[-87.68560700306816,41.80165862417512]}},{"type":"Feature","properties":{"school_nm":"CLAY","x":"1199790.45457","grade_cat":"ES","y":"1817699.49521","sch_addr":"13231 S BURLEY AVE, 60633","school_id":"609856","grades":"PK, K, 1, 2, 3, 4, 5, 6, 7, 8","school_typ":"Traditional"},"geometry":{"type":"Point","coordinates":[-87.54461359769068,41.654558148396525]}},{"type":"Feature","properties":{"school_nm":"CLEVELAND","x":"1154775.16435","grade_cat":"ES","y":"1925737.67021","sch_addr":"3121 W BYRON ST, 60618","school_id":"609857","grades":"PK, K, 1, 2, 3, 4, 5, 6, 7, 8","school_typ":"Traditional"},"geometry":{"type":"Point","coordinates":[-87.70644252546367,41.95204212082533]}},{"type":"Feature","properties":{"school_nm":"CLINTON","x":"1156864.38819","grade_cat":"ES","y":"1940511.95923","sch_addr":"6110 N FAIRFIELD AVE, 60659","school_id":"609859","grades":"PK, K, 1, 2, 3, 4, 5, 6, 7, 8","school_typ":"Traditional"},"geometry":{"type":"Point","coordinates":[-87.69835995432015,41.99254135950569]}},{"type":"Feature","properties":{"school_nm":"CLISSOLD","x":"1162440.7937","grade_cat":"ES","y":"1831405.30999","sch_addr":"2350 W 110TH PL, 60643","school_id":"609861","grades":"K, 1, 2, 3, 4, 5, 6, 7, 8","school_typ":"Traditional"},"geometry":{"type":"Point","coordinates":[-87.6808967872205,41.693026005644974]}},{"type":"Feature","properties":{"school_nm":"COLES","x":"1193672.24174","grade_cat":"ES","y":"1849295.64921","sch_addr":"8441 S YATES BLVD, 60617","school_id":"609862","grades":"PK, K, 1, 2, 3, 4, 5, 6, 7, 8","school_typ":"Traditional"},"geometry":{"type":"Point","coordinates":[-87.56596977182141,41.74141280641801]}},{"type":"Feature","properties":{"school_nm":"COLUMBUS","x":"1161586.10512","grade_cat":"ES","y":"1906664.91242","sch_addr":"1003 N LEAVITT ST, 60622","school_id":"609863","grades":"PK, K, 1, 2, 3, 4, 5, 6, 7, 8","school_typ":"Traditional"},"geometry":{"type":"Point","coordinates":[-87.681938049323,41.89956577485199]}},{"type":"Feature","properties":{"school_nm":"COOK","x":"1168060.78706","grade_cat":"ES","y":"1850474.82565","sch_addr":"8150 S BISHOP ST, 60620","school_id":"609864","grades":"PK, K, 1, 2, 3, 4, 5, 6, 7, 8","school_typ":"Traditional"},"geometry":{"type":"Point","coordinates":[-87.65977458980146,41.74523702141981]}},{"type":"Feature","properties":{"school_nm":"JORDAN","x":"1162395.23408","grade_cat":"ES","y":"1949498.96094","sch_addr":"7414 N WOLCOTT AVE, 60626","school_id":"609865","grades":"PK, K, 1, 2, 3, 4, 5, 6, 7, 8","school_typ":"Traditional"},"geometry":{"type":"Point","coordinates":[-87.67776251685315,42.01708759096721]}},{"type":"Feature","properties":{"school_nm":"COONLEY","x":"1160934.09298","grade_cat":"ES","y":"1927063.05502","sch_addr":"4046 N LEAVITT ST, 60618","school_id":"609866","grades":"K, 1, 2, 3, 4, 5, 6, 7, 8","school_typ":"Traditional"},"geometry":{"type":"Point","coordinates":[-87.68376530076175,41.95555319469823]}},{"type":"Feature","properties":{"school_nm":"COOPER","x":"1165714.16445","grade_cat":"ES","y":"1890831.7164","sch_addr":"1624 W 19TH ST, 60608","school_id":"609867","grades":"PK, K, 1, 2, 3, 4, 5","school_typ":"Traditional"},"geometry":{"type":"Point","coordinates":[-87.66722708445998,41.85603119195194]}},{"type":"Feature","properties":{"school_nm":"LANGFORD","x":"1168658.80194","grade_cat":"ES","y":"1864853.41205","sch_addr":"6010 S THROOP ST, 60636","school_id":"609869","grades":"PK, K, 1, 2, 3, 4, 5, 6, 7, 8","school_typ":"Traditional"},"geometry":{"type":"Point","coordinates":[-87.65716920537632,41.78468086054669]}},{"type":"Feature","properties":{"school_nm":"CORKERY","x":"1148314.84197","grade_cat":"ES","y":"1886902.81316","sch_addr":"2510 S KILDARE AVE, 60623","school_id":"609870","grades":"PK, K, 1, 2, 3, 4, 5, 6, 7, 8","school_typ":"Traditional"},"geometry":{"type":"Point","coordinates":[-87.73119286568263,41.84560242144964]}},{"type":"Feature","properties":{"school_nm":"VICK","x":"1161148.59156","grade_cat":"ES","y":"1829633.5865","sch_addr":"2554 W 113TH ST, 60655","school_id":"609871","grades":"PK","school_typ":"Early Childhood"},"geometry":{"type":"Point","coordinates":[-87.6856765978834,41.688190837411916]}},{"type":"Feature","properties":{"school_nm":"PEREZ","x":"1168233.28901","grade_cat":"ES","y":"1890850.4949","sch_addr":"1241 W 19TH ST, 60608","school_id":"609872","grades":"PK, K, 1, 2, 3, 4, 5, 6, 7, 8","school_typ":"Traditional"},"geometry":{"type":"Point","coordinates":[-87.65798012769622,41.85602872248889]}},{"type":"Feature","properties":{"school_nm":"CROWN","x":"1153397.62806","grade_cat":"ES","y":"1889512.16523","sch_addr":"2128 S SAINT LOUIS AVE, 60623","school_id":"609873","grades":"PK, K, 1, 2, 3, 4, 5, 6, 7, 8","school_typ":"Traditional"},"geometry":{"type":"Point","coordinates":[-87.71247015061276,41.85266348767926]}},{"type":"Feature","properties":{"school_nm":"DIRKSEN","x":"1118116.44174","grade_cat":"ES","y":"1933396.18803","sch_addr":"8601 W FOSTER AVE, 60656","school_id":"609874","grades":"PK, K, 1, 2, 3, 4, 5, 6, 7, 8","school_typ":"Traditional"},"geometry":{"type":"Point","coordinates":[-87.84104144264982,41.973714776786956]}},{"type":"Feature","properties":{"school_nm":"DARWIN","x":"1155131.89297","grade_cat":"ES","y":"1915274.30563","sch_addr":"3116 W BELDEN AVE, 60647","school_id":"609875","grades":"PK, K, 1, 2, 3, 4, 5, 6, 7, 8","school_typ":"Traditional"},"geometry":{"type":"Point","coordinates":[-87.70541291384822,41.923322716802375]}},{"type":"Feature","properties":{"school_nm":"DAVIS N","x":"1156822.68716","grade_cat":"ES","y":"1878308.84774","sch_addr":"3014 W 39TH PL, 60632","school_id":"609876","grades":"PK, K, 1, 2, 3, 4, 5, 6, 7, 8","school_typ":"Traditional"},"geometry":{"type":"Point","coordinates":[-87.70020216026171,41.82185161377397]}},{"type":"Feature","properties":{"school_nm":"DAWES","x":"1152348.15575","grade_cat":"ES","y":"1850299.05107","sch_addr":"3810 W 81ST PL, 60652","school_id":"609879","grades":"PK, K, 1, 2, 3, 4, 5, 6, 7, 8","school_typ":"Traditional"},"geometry":{"type":"Point","coordinates":[-87.71735342363266,41.74507775134669]}},{"type":"Feature","properties":{"school_nm":"DECATUR","x":"1155118.1886","grade_cat":"ES","y":"1946602.18884","sch_addr":"7030 N SACRAMENTO AVE, 60645","school_id":"609880","grades":"K, 1, 2, 3, 4, 5, 6","school_typ":"Traditional"},"geometry":{"type":"Point","coordinates":[-87.7046185932244,42.00928855699754]}},{"type":"Feature","properties":{"school_nm":"DENEEN","x":"1177950.52548","grade_cat":"ES","y":"1856841.68201","sch_addr":"7240 S WABASH AVE, 60619","school_id":"609883","grades":"PK, K, 1, 2, 3, 4, 5, 6, 7, 8","school_typ":"Traditional"},"geometry":{"type":"Point","coordinates":[-87.62334458926513,41.76249026346902]}},{"type":"Feature","properties":{"school_nm":"DEVER","x":"1125774.80142","grade_cat":"ES","y":"1922085.11386","sch_addr":"3436 N OSCEOLA AVE, 60634","school_id":"609884","grades":"PK, K, 1, 2, 3, 4, 5, 6, 7, 8","school_typ":"Traditional"},"geometry":{"type":"Point","coordinates":[-87.81313152528315,41.94255166950198]}},{"type":"Feature","properties":{"school_nm":"DEWEY","x":"1172586.08641","grade_cat":"ES","y":"1868880.39252","sch_addr":"5415 S UNION AVE, 60609","school_id":"609885","grades":"PK, K, 1, 2, 3, 4, 5, 6, 7, 8","school_typ":"Traditional"},"geometry":{"type":"Point","coordinates":[-87.6426515784289,41.79564568303255]}},{"type":"Feature","properties":{"school_nm":"DIXON","x":"1181654.66965","grade_cat":"ES","y":"1850013.84331","sch_addr":"8306 S SAINT LAWRENCE AVE, 60619","school_id":"609887","grades":"PK, K, 1, 2, 3, 4, 5, 6, 7, 8","school_typ":"Traditional"},"geometry":{"type":"Point","coordinates":[-87.6099788745453,41.74366924135812]}},{"type":"Feature","properties":{"school_nm":"DOOLITTLE","x":"1180760.92078","grade_cat":"ES","y":"1881875.30846","sch_addr":"535 E 35TH ST, 60616","school_id":"609891","grades":"PK, K, 1, 2, 3, 4, 5, 6, 7, 8","school_typ":"Traditional"},"geometry":{"type":"Point","coordinates":[-87.61227454299049,41.83112062833841]}},{"type":"Feature","properties":{"school_nm":"DORE","x":"1133093.96395","grade_cat":"ES","y":"1863242.77945","sch_addr":"6108 S NATOMA AVE, 60638","school_id":"609893","grades":"PK, K, 1, 2, 3, 4, 5, 6, 7, 8","school_typ":"Traditional"},"geometry":{"type":"Point","coordinates":[-87.78760442131032,41.78095446341107]}},{"type":"Feature","properties":{"school_nm":"DRAKE","x":"1176285.74994","grade_cat":"ES","y":"1886547.47136","sch_addr":"2710 S DEARBORN ST, 60616","school_id":"609894","grades":"PK, K, 1, 2, 3, 4, 5, 6, 7, 8","school_typ":"Traditional"},"geometry":{"type":"Point","coordinates":[-87.6285534465876,41.84404331209266]}},{"type":"Feature","properties":{"school_nm":"TURNER-DREW","x":"1176199.71763","grade_cat":"ES","y":"1843387.28799","sch_addr":"9300 S PRINCETON AVE, 60620","school_id":"609895","grades":"K, 1, 2, 3, 4, 5, 6, 7, 8","school_typ":"Traditional"},"geometry":{"type":"Point","coordinates":[-87.63016447885606,41.725609215693005]}},{"type":"Feature","properties":{"school_nm":"DRUMMOND","x":"1163566.76619","grade_cat":"ES","y":"1912637.61701","sch_addr":"1845 W CORTLAND ST, 60622","school_id":"609896","grades":"PK, K, 1, 2, 3, 4, 5, 6, 7, 8","school_typ":"Traditional"},"geometry":{"type":"Point","coordinates":[-87.67449459893486,41.915913801094945]}},{"type":"Feature","properties":{"school_nm":"EARLE","x":"1163656.36542","grade_cat":"ES","y":"1863555.3054","sch_addr":"2040 W 62ND ST, 60636","school_id":"609897","grades":"PK, K, 1, 2, 3, 4, 5, 6, 7, 8","school_typ":"Traditional"},"geometry":{"type":"Point","coordinates":[-87.67554666012475,41.78122517253027]}},{"type":"Feature","properties":{"school_nm":"EBERHART","x":"1154835.87125","grade_cat":"ES","y":"1861009.7721","sch_addr":"3400 W 65TH PL, 60629","school_id":"609898","grades":"K, 1, 2, 3, 4, 5, 6, 7, 8","school_typ":"Traditional"},"geometry":{"type":"Point","coordinates":[-87.70795263348174,41.774420451594345]}},{"type":"Feature","properties":{"school_nm":"EBINGER","x":"1126171.12084","grade_cat":"ES","y":"1944629.00939","sch_addr":"7350 W PRATT AVE, 60631","school_id":"609899","grades":"K, 1, 2, 3, 4, 5, 6, 7, 8","school_typ":"Traditional"},"geometry":{"type":"Point","coordinates":[-87.81116978485632,42.004407921137776]}},{"type":"Feature","properties":{"school_nm":"CURTIS","x":"1178644.31674","grade_cat":"ES","y":"1828761.3179","sch_addr":"32 E 115TH ST, 60628","school_id":"609900","grades":"PK, K, 1, 2, 3, 4, 5, 6, 7, 8","school_typ":"Traditional"},"geometry":{"type":"Point","coordinates":[-87.6216526075813,41.68541839968939]}},{"type":"Feature","properties":{"school_nm":"EDGEBROOK","x":"1139590.68684","grade_cat":"ES","y":"1942903.14769","sch_addr":"6525 N HIAWATHA AVE, 60646","school_id":"609901","grades":"K, 1, 2, 3, 4, 5, 6, 7, 8","school_typ":"Traditional"},"geometry":{"type":"Point","coordinates":[-87.7618404744351,41.99943683277353]}},{"type":"Feature","properties":{"school_nm":"METCALFE","x":"1175235.39935","grade_cat":"ES","y":"1822912.17343","sch_addr":"12339 S NORMAL AVE, 60628","school_id":"609902","grades":"PK, K, 1, 2, 3, 4, 5, 6, 7, 8","school_typ":"Traditional"},"geometry":{"type":"Point","coordinates":[-87.63430552125133,41.669444022412314]}},{"type":"Feature","properties":{"school_nm":"EDWARDS","x":"1149872.14988","grade_cat":"ES","y":"1872315.06741","sch_addr":"4815 S KARLOV AVE, 60632","school_id":"609903","grades":"PK, K, 1, 2, 3, 4, 5, 6, 7, 8","school_typ":"Traditional"},"geometry":{"type":"Point","coordinates":[-87.72585617790203,41.805541539105775]}},{"type":"Feature","properties":{"school_nm":"ELLINGTON","x":"1138574.2896","grade_cat":"ES","y":"1901386.52665","sch_addr":"243 N PARKSIDE AVE, 60644","school_id":"609904","grades":"PK, K, 1, 2, 3, 4, 5, 6, 7, 8","school_typ":"Traditional"},"geometry":{"type":"Point","coordinates":[-87.76658937771538,41.88552957975924]}},{"type":"Feature","properties":{"school_nm":"ERICSON","x":"1152428.73663","grade_cat":"ES","y":"1897916.1412","sch_addr":"3600 W 5TH AVE, 60624","school_id":"609907","grades":"PK, K, 1, 2, 3, 4, 5, 6, 7, 8","school_typ":"Traditional"},"geometry":{"type":"Point","coordinates":[-87.7158044315032,41.87574412263659]}},{"type":"Feature","properties":{"school_nm":"ESMOND","x":"1165656.80925","grade_cat":"ES","y":"1830115.6856","sch_addr":"1865 W MONTVALE AVE, 60643","school_id":"609908","grades":"PK, K, 1, 2, 3, 4, 5, 6, 7, 8","school_typ":"Traditional"},"geometry":{"type":"Point","coordinates":[-87.66915866999116,41.68941960556063]}},{"type":"Feature","properties":{"school_nm":"EVERETT","x":"1161945.23334","grade_cat":"ES","y":"1881883.28679","sch_addr":"3419 S BELL AVE, 60608","school_id":"609909","grades":"PK, K, 1, 2, 3, 4, 5","school_typ":"Traditional"},"geometry":{"type":"Point","coordinates":[-87.68131030372447,41.83155516065107]}},{"type":"Feature","properties":{"school_nm":"FALCONER","x":"1143149.17546","grade_cat":"ES","y":"1919730.96634","sch_addr":"3020 N LAMON AVE, 60641","school_id":"609910","grades":"PK, K, 1, 2, 3, 4, 5, 6","school_typ":"Traditional"},"geometry":{"type":"Point","coordinates":[-87.74933062514465,41.93578457297129]}},{"type":"Feature","properties":{"school_nm":"FARNSWORTH","x":"1138488.00237","grade_cat":"ES","y":"1935736.11445","sch_addr":"5414 N LINDER AVE, 60630","school_id":"609912","grades":"PK, K, 1, 2, 3, 4, 5, 6, 7, 8","school_typ":"Traditional"},"geometry":{"type":"Point","coordinates":[-87.7660716581908,41.979790054887566]}},{"type":"Feature","properties":{"school_nm":"FERNWOOD","x":"1173444.21002","grade_cat":"ES","y":"1838108.07283","sch_addr":"10041 S UNION AVE, 60628","school_id":"609917","grades":"PK, K, 1, 2, 3, 4, 5, 6, 7, 8","school_typ":"Traditional"},"geometry":{"type":"Point","coordinates":[-87.64041364558067,41.71118362225583]}},{"type":"Feature","properties":{"school_nm":"FIELD","x":"1164529.56643","grade_cat":"ES","y":"1946809.97977","sch_addr":"7019 N ASHLAND AVE, 60626","school_id":"609918","grades":"5, 6, 7, 8","school_typ":"Traditional"},"geometry":{"type":"Point","coordinates":[-87.66998540067715,42.00966385468162]}},{"type":"Feature","properties":{"school_nm":"FISKE","x":"1181894.5422","grade_cat":"ES","y":"1865144.15524","sch_addr":"6020 S LANGLEY AVE, 60637","school_id":"609919","grades":"PK, K, 1, 2, 3, 4, 5, 6, 7, 8","school_typ":"Traditional"},"geometry":{"type":"Point","coordinates":[-87.60863289647321,41.78518281585605]}},{"type":"Feature","properties":{"school_nm":"KANOON","x":"1155407.3104","grade_cat":"ES","y":"1888837.30503","sch_addr":"2233 S KEDZIE AVE, 60623","school_id":"609920","grades":"PK, K, 1, 2, 3, 4, 5, 6, 7, 8","school_typ":"Traditional"},"geometry":{"type":"Point","coordinates":[-87.70511207710514,41.85077148359955]}},{"type":"Feature","properties":{"school_nm":"TELPOCHCALLI","x":"1157895.91992","grade_cat":"ES","y":"1887826.51145","sch_addr":"2832 W 24TH BLVD, 60623","school_id":"609921","grades":"PK, K, 1, 2, 3, 4, 5, 6, 7, 8","school_typ":"Traditional"},"geometry":{"type":"Point","coordinates":[-87.69600587942459,41.847947431747436]}},{"type":"Feature","properties":{"school_nm":"BELMONT-CRAGIN","x":"1140837.92844","grade_cat":"ES","y":"1914547.66896","sch_addr":"5252 W PALMER ST, 60639","school_id":"609922","grades":"PK, K, 1, 2, 3, 4, 5, 6, 7, 8","school_typ":"Traditional"},"geometry":{"type":"Point","coordinates":[-87.75795257360043,41.92160395650289]}},{"type":"Feature","properties":{"school_nm":"FORT DEARBORN","x":"1169277.11894","grade_cat":"ES","y":"1844812.53284","sch_addr":"9025 S THROOP ST, 60620","school_id":"609924","grades":"PK, K, 1, 2, 3, 4, 5, 6, 7, 8","school_typ":"Traditional"},"geometry":{"type":"Point","coordinates":[-87.65548116090856,41.72967267412901]}},{"type":"Feature","properties":{"school_nm":"KELLMAN","x":"1156158.84892","grade_cat":"ES","y":"1895911.13406","sch_addr":"3030 W ARTHINGTON ST, 60612","school_id":"609925","grades":"PK, K, 1, 2, 3, 4, 5, 6, 7, 8","school_typ":"Traditional"},"geometry":{"type":"Point","coordinates":[-87.70216290437963,41.87016771714874]}},{"type":"Feature","properties":{"school_nm":"FRANKLIN","x":"1174204.14551","grade_cat":"ES","y":"1909327.56982","sch_addr":"225 W EVERGREEN AVE, 60610","school_id":"609926","grades":"K, 1, 2, 3, 4, 5, 6, 7, 8","school_typ":"Traditional"},"geometry":{"type":"Point","coordinates":[-87.63551281031579,41.90659998946294]}},{"type":"Feature","properties":{"school_nm":"FOSTER PARK","x":"1165808.18756","grade_cat":"ES","y":"1847975.09279","sch_addr":"8530 S WOOD ST, 60620","school_id":"609927","grades":"PK, K, 1, 2, 3, 4, 5, 6, 7, 8","school_typ":"Traditional"},"geometry":{"type":"Point","coordinates":[-87.66809931234333,41.73842547724147]}},{"type":"Feature","properties":{"school_nm":"FULLER","x":"1180934.7413","grade_cat":"ES","y":"1877096.56769","sch_addr":"4214 S ST LAWRENCE AVE, 60653","school_id":"609928","grades":"PK, K, 1, 2, 3, 4, 5, 6, 7, 8","school_typ":"Traditional"},"geometry":{"type":"Point","coordinates":[-87.61178404265375,41.81800340293327]}},{"type":"Feature","properties":{"school_nm":"FULTON","x":"1165549.69661","grade_cat":"ES","y":"1869529.90795","sch_addr":"5300 S HERMITAGE AVE, 60609","school_id":"609929","grades":"PK, K, 1, 2, 3, 4, 5, 6, 7, 8","school_typ":"Traditional"},"geometry":{"type":"Point","coordinates":[-87.66843588180264,41.797580270019274]}},{"type":"Feature","properties":{"school_nm":"FUNSTON","x":"1152023.00614","grade_cat":"ES","y":"1913172.29376","sch_addr":"2010 N CENTRAL PARK AVE, 60647","school_id":"609930","grades":"PK, K, 1, 2, 3, 4, 5, 6, 7, 8","school_typ":"Traditional"},"geometry":{"type":"Point","coordinates":[-87.71689166480509,41.91761651373583]}},{"type":"Feature","properties":{"school_nm":"GALE","x":"1163966.46224","grade_cat":"ES","y":"1950969.84645","sch_addr":"1631 W JONQUIL TER, 60626","school_id":"609933","grades":"PK, K, 1, 2, 3, 4, 5, 6, 7, 8","school_typ":"Traditional"},"geometry":{"type":"Point","coordinates":[-87.67193897621,42.02109055717383]}},{"type":"Feature","properties":{"school_nm":"GALLISTEL","x":"1202193.40317","grade_cat":"ES","y":"1836759.88622","sch_addr":"10347 S EWING AVE, 60617","school_id":"609935","grades":"PK, K, 1, 2, 3, 4, 5, 6, 7, 8","school_typ":"Traditional"},"geometry":{"type":"Point","coordinates":[-87.53517530585388,41.70680099884353]}},{"type":"Feature","properties":{"school_nm":"GARVY","x":"1130294.41213","grade_cat":"ES","y":"1934430.2811","sch_addr":"5225 N OAK PARK AVE, 60656","school_id":"609937","grades":"K, 1, 2, 3, 4, 5, 6, 7, 8","school_typ":"Traditional"},"geometry":{"type":"Point","coordinates":[-87.79623511407263,41.976351663260274]}},{"type":"Feature","properties":{"school_nm":"GARY","x":"1151741.95913","grade_cat":"ES","y":"1883815.98568","sch_addr":"3740 W 31ST ST, 60623","school_id":"609938","grades":"PK, 3, 4, 5, 6, 7, 8","school_typ":"Traditional"},"geometry":{"type":"Point","coordinates":[-87.71869663582645,41.83706515120611]}},{"type":"Feature","properties":{"school_nm":"GILLESPIE","x":"1177959.91522","grade_cat":"ES","y":"1843300.81244","sch_addr":"9301 S STATE ST, 60619","school_id":"609939","grades":"PK, K, 1, 2, 3, 4, 5, 6, 7, 8","school_typ":"Traditional"},"geometry":{"type":"Point","coordinates":[-87.62371943750111,41.72533227855046]}},{"type":"Feature","properties":{"school_nm":"RANDOLPH","x":"1163599.53056","grade_cat":"ES","y":"1856043.93197","sch_addr":"7316 S HOYNE AVE, 60636","school_id":"609941","grades":"PK, K, 1, 2, 3, 4, 5, 6, 7, 8","school_typ":"Traditional"},"geometry":{"type":"Point","coordinates":[-87.67596551356017,41.76061412672374]}},{"type":"Feature","properties":{"school_nm":"GOETHE","x":"1158538.58629","grade_cat":"ES","y":"1915120.31021","sch_addr":"2236 N ROCKWELL ST, 60647","school_id":"609942","grades":"PK, K, 1, 2, 3, 4, 5, 6, 7, 8","school_typ":"Traditional"},"geometry":{"type":"Point","coordinates":[-87.69289969583106,41.9228310066053]}},{"type":"Feature","properties":{"school_nm":"OWENS","x":"1178444.87062","grade_cat":"ES","y":"1823366.06852","sch_addr":"12302 S STATE ST, 60628","school_id":"609943","grades":"PK, K, 1, 2, 3, 4, 5, 6, 7, 8","school_typ":"Traditional"},"geometry":{"type":"Point","coordinates":[-87.6225456606333,41.670617539510694]}},{"type":"Feature","properties":{"school_nm":"GRISSOM","x":"1197388.66672","grade_cat":"ES","y":"1820564.85431","sch_addr":"12810 S ESCANABA AVE, 60633","school_id":"609944","grades":"PK, K, 1, 2, 3, 4, 5, 6, 7, 8","school_typ":"Traditional"},"geometry":{"type":"Point","coordinates":[-87.55330671029182,41.66248099818303]}},{"type":"Feature","properties":{"school_nm":"GOUDY","x":"1167907.94583","grade_cat":"ES","y":"1934501.46501","sch_addr":"5120 N WINTHROP AVE, 60640","school_id":"609945","grades":"PK, K, 1, 2, 3, 4, 5, 6, 7, 8","school_typ":"Traditional"},"geometry":{"type":"Point","coordinates":[-87.65791249240219,41.975816529586815]}},{"type":"Feature","properties":{"school_nm":"GRAHAM ES","x":"1172345.55539","grade_cat":"ES","y":"1875313.36817","sch_addr":"4436 S UNION AVE, 60609","school_id":"609947","grades":"PK, K, 1, 2, 3, 4, 5, 6, 7, 8","school_typ":"Traditional"},"geometry":{"type":"Point","coordinates":[-87.64334423562201,41.813303728919124]}},{"type":"Feature","properties":{"school_nm":"GRAY","x":"1140999.18993","grade_cat":"ES","y":"1924446.21085","sch_addr":"3730 N LARAMIE AVE, 60641","school_id":"609949","grades":"PK, K, 1, 2, 3, 4, 5, 6, 7, 8","school_typ":"Traditional"},"geometry":{"type":"Point","coordinates":[-87.75711559859316,41.948763578738756]}},{"type":"Feature","properties":{"school_nm":"ORTIZ DE DOMINGUEZ","x":"1152147.93043","grade_cat":"ES","y":"1884447.64353","sch_addr":"3000 S LAWNDALE AVE, 60623","school_id":"609950","grades":"PK, K, 1, 2","school_typ":"Traditional"},"geometry":{"type":"Point","coordinates":[-87.71719032015918,41.83879051932452]}},